[{"jsonrpc":"2.0","result":{"data":{"Analytics":null},"value":{"results":{"257200":{"DISTANCE":"4936.77453573045","DOOR_ID":257200,"STORE_TYPE":"","CITY":"Puteaux","SERVICES":null,"COUNTRY":"France","STORE_HOURS":null,"EVENT_NAME":"","DOORNAME":"Séphora","PHONE1":"01.47.73.55.02","REGION":null,"LATITUDE":"48.884748","ADDRESS2":"","ADDRESS":"2 Le Parvis de la Defense","ZIP_OR_POSTAL":"92800","EVENT_IMAGE":"","EVENT_END_DATE":null,"EVENT_FEATURES":null,"EVENT_TIMES":"","LONGITUDE":"2.23964","EVENT_START_DATE":null,"STATE_OR_PROVINCE":""},"256873":{"DISTANCE":"856.594287248083","DOOR_ID":256873,"STORE_TYPE":"","CITY":"Scottsdale","SERVICES":null,"COUNTRY":"UNITED STATES","STORE_HOURS":null,"EVENT_NAME":"","DOORNAME":"COS BAR","PHONE1":"480.607.2771","REGION":null,"LATITUDE":"33.6247914","ADDRESS2":"#140","ADDRESS":"15044 N. Scottsdale Rd","ZIP_OR_POSTAL":"85254","EVENT_IMAGE":"","EVENT_END_DATE":null,"EVENT_FEATURES":null,"EVENT_TIMES":"","LONGITUDE":"-111.9257435","EVENT_START_DATE":null,"STATE_OR_PROVINCE":"AZ"},"257382":{"DISTANCE":"4515.57278250349","DOOR_ID":257382,"STORE_TYPE":"","CITY":"Edinburgh","SERVICES":null,"COUNTRY":"United Kingdom","STORE_HOURS":null,"EVENT_NAME":"","DOORNAME":"Jenners","PHONE1":"0131 260 2442 (direct)","REGION":null,"LATITUDE":"55.952548","ADDRESS2":"","ADDRESS":"48 Princes Street","ZIP_OR_POSTAL":"EH2 2YJ","EVENT_IMAGE":"","EVENT_END_DATE":null,"EVENT_FEATURES":null,"EVENT_TIMES":"","LONGITUDE":"-3.1938498","EVENT_START_DATE":null,"STATE_OR_PROVINCE":""},"1667361":{"DISTANCE":"8065.81455675346","DOOR_ID":1667361,"STORE_TYPE":"","CITY":"Abu Dhabi","SERVICES":null,"COUNTRY":"United Arab Emirates","STORE_HOURS":null,"EVENT_NAME":"","DOORNAME":"Bobbi Brown","PHONE1":"+971 2 6774812","REGION":null,"LATITUDE":"24.381543","ADDRESS2":"First Floor, Unit #C58","ADDRESS":"Abu Dhabi Mall","ZIP_OR_POSTAL":"","EVENT_IMAGE":"","EVENT_END_DATE":null,"EVENT_FEATURES":null,"EVENT_TIMES":"","LONGITUDE":"54.522968","EVENT_START_DATE":null,"STATE_OR_PROVINCE":""},"367344":{"DISTANCE":"1519.00212893112","DOOR_ID":367344,"STORE_TYPE":"","CITY":"Montreal","SERVICES":null,"COUNTRY":"Canada","STORE_HOURS":null,"EVENT_NAME":"","DOORNAME":"Holt Renfrew","PHONE1":"514.842.5111","REGION":null,"LATITUDE":"45.499249","ADDRESS2":"","ADDRESS":"1300 Sherbrooke St. W","ZIP_OR_POSTAL":"H3G 1H9","EVENT_IMAGE":"","EVENT_END_DATE":null,"EVENT_FEATURES":null,"EVENT_TIMES":"","LONGITUDE":"-73.5788776","EVENT_START_DATE":null,"STATE_OR_PROVINCE":"QC"},"257306":{"DISTANCE":"5064.00065935559","DOOR_ID":257306,"STORE_TYPE":"","CITY":"Bielefeld","SERVICES":null,"COUNTRY":"Germany","STORE_HOURS":null,"EVENT_NAME":"","DOORNAME":"Parfumerie Wolf","PHONE1":"49-521-9644711","REGION":null,"LATITUDE":"52.02481","ADDRESS2":"","ADDRESS":"Bahnhofstr./Ecke Arndtstr. 2","ZIP_OR_POSTAL":"33602","EVENT_IMAGE":"","EVENT_END_DATE":null,"EVENT_FEATURES":null,"EVENT_TIMES":"","LONGITUDE":"8.53166","EVENT_START_DATE":null,"STATE_OR_PROVINCE":""},"352179":{"DISTANCE":"1298.59908417376","DOOR_ID":352179,"STORE_TYPE":"","CITY":"Wayne","SERVICES":null,"COUNTRY":"UNITED STATES","STORE_HOURS":null,"EVENT_NAME":"","DOORNAME":"CLEVELAND","PHONE1":"","REGION":null,"LATITUDE":"40.043889","ADDRESS2":"100 East Lancaster Avenue","ADDRESS":"Blue Mercury","ZIP_OR_POSTAL":"19087","EVENT_IMAGE":"","EVENT_END_DATE":null,"EVENT_FEATURES":null,"EVENT_TIMES":"","LONGITUDE":"-75.388056","EVENT_START_DATE":null,"STATE_OR_PROVINCE":"PA"},"2050021":{"DISTANCE":"5762.36150202308","DOOR_ID":2050021,"STORE_TYPE":"","CITY":"Moscow","SERVICES":null,"COUNTRY":"Russia","STORE_HOURS":null,"EVENT_NAME":"","DOORNAME":"Rive Gauche Rio-1","PHONE1":"+7.915.409.60.48","REGION":null,"LATITUDE":"55.755826","ADDRESS2":"","ADDRESS":"Dmitrovskoe highroad, 163A","ZIP_OR_POSTAL":"127495","EVENT_IMAGE":"","EVENT_END_DATE":null,"EVENT_FEATURES":null,"EVENT_TIMES":"","LONGITUDE":"37.6173","EVENT_START_DATE":null,"STATE_OR_PROVINCE":"Moscow region"},"256911":{"DISTANCE":"1557.71903756225","DOOR_ID":256911,"STORE_TYPE":"","CITY":"Braintree","SERVICES":null,"COUNTRY":"UNITED STATES","STORE_HOURS":null,"EVENT_NAME":"","DOORNAME":"Nordstrom","PHONE1":"","REGION":null,"LATITUDE":"42.2185246","ADDRESS2":"","ADDRESS":"250 Granite Street","ZIP_OR_POSTAL":"02184","EVENT_IMAGE":"","EVENT_END_DATE":null,"EVENT_FEATURES":null,"EVENT_TIMES":"","LONGITUDE":"-71.0255463","EVENT_START_DATE":null,"STATE_OR_PROVINCE":"MA"},"257019":{"DISTANCE":"4958.8648410651","DOOR_ID":257019,"STORE_TYPE":"","CITY":"Madrid","SERVICES":null,"COUNTRY":"Spain","STORE_HOURS":null,"EVENT_NAME":"","DOORNAME":"El Corte Ingles","PHONE1":"91.559.26.33","REGION":null,"LATITUDE":"40.4309296","ADDRESS2":"","ADDRESS":"Princesa, 56","ZIP_OR_POSTAL":"28008","EVENT_IMAGE":"","EVENT_END_DATE":null,"EVENT_FEATURES":null,"EVENT_TIMES":"","LONGITUDE":"-3.7165407","EVENT_START_DATE":null,"STATE_OR_PROVINCE":"Madrid"},"256894":{"DISTANCE":"776.528534647028","DOOR_ID":256894,"STORE_TYPE":"","CITY":"Indianapolis","SERVICES":null,"COUNTRY":"UNITED STATES","STORE_HOURS":null,"EVENT_NAME":"","DOORNAME":"Macy's - Castleton","PHONE1":"317-579-4500","REGION":null,"LATITUDE":"39.9056729","ADDRESS2":"Indianapolis, IN 46250","ADDRESS":"6020 E 82 Street","ZIP_OR_POSTAL":"46250","EVENT_IMAGE":"","EVENT_END_DATE":null,"EVENT_FEATURES":null,"EVENT_TIMES":"","LONGITUDE":"-86.0666158","EVENT_START_DATE":null,"STATE_OR_PROVINCE":"IN"},"5936131":{"DISTANCE":"1726.03991201918","DOOR_ID":5936131,"STORE_TYPE":"","CITY":"Victoria","SERVICES":null,"COUNTRY":"","STORE_HOURS":null,"EVENT_NAME":"","DOORNAME":"Sephora Canada-Victoria","PHONE1":"","REGION":null,"LATITUDE":"48.4467793","ADDRESS2":"","ADDRESS":"3147 Douglas Street Unit 147","ZIP_OR_POSTAL":"","EVENT_IMAGE":"","EVENT_END_DATE":null,"EVENT_FEATURES":null,"EVENT_TIMES":"","LONGITUDE":"-123.370866","EVENT_START_DATE":null,"STATE_OR_PROVINCE":"BC"},"5936143":{"DISTANCE":"1197.75881648316","DOOR_ID":5936143,"STORE_TYPE":"","CITY":"Etobicoke","SERVICES":null,"COUNTRY":"","STORE_HOURS":null,"EVENT_NAME":"","DOORNAME":"Hudsons Bay-Sherway","PHONE1":"","REGION":null,"LATITUDE":"43.6116933","ADDRESS2":"","ADDRESS":"25 The West Mall","ZIP_OR_POSTAL":"","EVENT_IMAGE":"","EVENT_END_DATE":null,"EVENT_FEATURES":null,"EVENT_TIMES":"","LONGITUDE":"-79.557183","EVENT_START_DATE":null,"STATE_OR_PROVINCE":"ON"},"256749":{"DISTANCE":"9282.52626010518","DOOR_ID":256749,"STORE_TYPE":"","CITY":"Adelaide","SERVICES":null,"COUNTRY":"Australia","STORE_HOURS":null,"EVENT_NAME":"","DOORNAME":"David Jones Adelaide","PHONE1":"08 8305 3387","REGION":null,"LATITUDE":"-34.921703","ADDRESS2":"","ADDRESS":"North Terrace, Central Plaza","ZIP_OR_POSTAL":"5000","EVENT_IMAGE":"","EVENT_END_DATE":null,"EVENT_FEATURES":null,"EVENT_TIMES":"","LONGITUDE":"138.602895","EVENT_START_DATE":null,"STATE_OR_PROVINCE":"SA"},"5936167":{"DISTANCE":"1194.55664236665","DOOR_ID":5936167,"STORE_TYPE":"","CITY":"Brampton","SERVICES":null,"COUNTRY":"","STORE_HOURS":null,"EVENT_NAME":"","DOORNAME":"Sephora Canada-Bramalea City ","PHONE1":"","REGION":null,"LATITUDE":"43.7154601","ADDRESS2":"","ADDRESS":"25 Peel Centre Drive Space #","ZIP_OR_POSTAL":"","EVENT_IMAGE":"","EVENT_END_DATE":null,"EVENT_FEATURES":null,"EVENT_TIMES":"","LONGITUDE":"-79.7216982","EVENT_START_DATE":null,"STATE_OR_PROVINCE":"ON"},"257210":{"DISTANCE":"5110.18735172059","DOOR_ID":257210,"STORE_TYPE":"","CITY":"Saarbrucken","SERVICES":null,"COUNTRY":"Germany","STORE_HOURS":null,"EVENT_NAME":"","DOORNAME":"CB Parfumerie","PHONE1":"49-681-369-15","REGION":null,"LATITUDE":"49.23343","ADDRESS2":"","ADDRESS":"Furstenstrasse 7","ZIP_OR_POSTAL":"66111","EVENT_IMAGE":"","EVENT_END_DATE":null,"EVENT_FEATURES":null,"EVENT_TIMES":"","LONGITUDE":"6.99504","EVENT_START_DATE":null,"STATE_OR_PROVINCE":""},"441323":{"DISTANCE":"1361.36886161188","DOOR_ID":441323,"STORE_TYPE":"","CITY":"Edison","SERVICES":null,"COUNTRY":"UNITED STATES","STORE_HOURS":null,"EVENT_NAME":"","DOORNAME":"Macy's Menlo Park","PHONE1":"","REGION":null,"LATITUDE":"40.5478149","ADDRESS2":"Menlo Park Mall","ADDRESS":"275 Parsonage Rd  ","ZIP_OR_POSTAL":"08837","EVENT_IMAGE":"","EVENT_END_DATE":null,"EVENT_FEATURES":null,"EVENT_TIMES":"","LONGITUDE":"-74.3349715","EVENT_START_DATE":null,"STATE_OR_PROVINCE":"NJ"},"367861":{"DISTANCE":"8305.09692286347","DOOR_ID":367861,"STORE_TYPE":"","CITY":"Mandaluyong City, Manila","SERVICES":null,"COUNTRY":"Philippines","STORE_HOURS":null,"EVENT_NAME":"","DOORNAME":"Rustan's Shangri-La","PHONE1":"63-2-633-4636","REGION":null,"LATITUDE":"14.5806743","ADDRESS2":"","ADDRESS":"Shangrila Plaza, Edsa cor. Shaw Blvd.","ZIP_OR_POSTAL":"1552","EVENT_IMAGE":"","EVENT_END_DATE":null,"EVENT_FEATURES":null,"EVENT_TIMES":"","LONGITUDE":"121.0473377","EVENT_START_DATE":null,"STATE_OR_PROVINCE":""},"257193":{"DISTANCE":"4941.7481535517","DOOR_ID":257193,"STORE_TYPE":"","CITY":"Paris","SERVICES":null,"COUNTRY":"France","STORE_HOURS":null,"EVENT_NAME":"","DOORNAME":"Séphora","PHONE1":"01.40.13.16.47","REGION":null,"LATITUDE":"48.8599317","ADDRESS2":"","ADDRESS":"rue de la Monnaie / 75 rue de Rivoli","ZIP_OR_POSTAL":"75001","EVENT_IMAGE":"","EVENT_END_DATE":null,"EVENT_FEATURES":null,"EVENT_TIMES":"","LONGITUDE":"2.3436199","EVENT_START_DATE":null,"STATE_OR_PROVINCE":""},"352215":{"DISTANCE":"1441.23854960255","DOOR_ID":352215,"STORE_TYPE":"","CITY":"Walnut","SERVICES":null,"COUNTRY":"UNITED STATES","STORE_HOURS":null,"EVENT_NAME":"","DOORNAME":"WALNUT CREEK","PHONE1":"","REGION":null,"LATITUDE":"37.8945143","ADDRESS2":"Broadway Plaza, 1000 South Main Street","ADDRESS":"Neiman Marcus","ZIP_OR_POSTAL":"945960","EVENT_IMAGE":"","EVENT_END_DATE":null,"EVENT_FEATURES":null,"EVENT_TIMES":"","LONGITUDE":"-122.0586157","EVENT_START_DATE":null,"STATE_OR_PROVINCE":"CA"},"257293":{"DISTANCE":"5024.21093705731","DOOR_ID":257293,"STORE_TYPE":"","CITY":"Oberhausen","SERVICES":null,"COUNTRY":"Germany","STORE_HOURS":null,"EVENT_NAME":"","DOORNAME":"Parfumerie Douglas","PHONE1":"49-208-800-124","REGION":null,"LATITUDE":"51.4762613","ADDRESS2":"","ADDRESS":"Osterfelderstrasse/Laden C 116","ZIP_OR_POSTAL":"46047","EVENT_IMAGE":"","EVENT_END_DATE":null,"EVENT_FEATURES":null,"EVENT_TIMES":"","LONGITUDE":"6.8850381","EVENT_START_DATE":null,"STATE_OR_PROVINCE":""},"256450":{"DISTANCE":"1464.12631716609","DOOR_ID":256450,"STORE_TYPE":"","CITY":"Spokane","SERVICES":null,"COUNTRY":"UNITED STATES","STORE_HOURS":null,"EVENT_NAME":"","DOORNAME":"Nordstrom","PHONE1":"509.455.6111 ","REGION":null,"LATITUDE":"47.6590446","ADDRESS2":"","ADDRESS":"828 West Main Avenue","ZIP_OR_POSTAL":"99201","EVENT_IMAGE":"","EVENT_END_DATE":null,"EVENT_FEATURES":null,"EVENT_TIMES":"","LONGITUDE":"-117.4244465","EVENT_START_DATE":null,"STATE_OR_PROVINCE":"WA"},"393657":{"DISTANCE":"8575.60683658629","DOOR_ID":393657,"STORE_TYPE":"airport","CITY":"Sydney","SERVICES":null,"COUNTRY":"Australia","STORE_HOURS":null,"EVENT_NAME":"","DOORNAME":"Nuance Mega B Store","PHONE1":"","REGION":null,"LATITUDE":"-33.9341885","ADDRESS2":"","ADDRESS":"Sydney International Airport, Departure Hall, Mascot NSW 2020","ZIP_OR_POSTAL":"2020","EVENT_IMAGE":"","EVENT_END_DATE":null,"EVENT_FEATURES":null,"EVENT_TIMES":"","LONGITUDE":"151.1804223","EVENT_START_DATE":null,"STATE_OR_PROVINCE":"NSW"},"257089":{"DISTANCE":"6635.54102570592","DOOR_ID":257089,"STORE_TYPE":"","CITY":"Kyoto","SERVICES":null,"COUNTRY":"Japan","STORE_HOURS":null,"EVENT_NAME":"","DOORNAME":"Daimaru Kyoto","PHONE1":"81-75-254-2080","REGION":null,"LATITUDE":"35.0042203","ADDRESS2":"Kyoto-shi","ADDRESS":"Shijotakakura Shimogyo-ku","ZIP_OR_POSTAL":"600-8511","EVENT_IMAGE":"","EVENT_END_DATE":null,"EVENT_FEATURES":null,"EVENT_TIMES":"","LONGITUDE":"135.762055","EVENT_START_DATE":null,"STATE_OR_PROVINCE":""},"451310":{"DISTANCE":"4768.49351859524","DOOR_ID":451310,"STORE_TYPE":"airport","CITY":"Gatwick Airport","SERVICES":null,"COUNTRY":"United Kingdom","STORE_HOURS":null,"EVENT_NAME":"","DOORNAME":"Gatwick Airport - South Terminal (Passengers Only)","PHONE1":"(44) 0129-3502-029","REGION":null,"LATITUDE":"51.1554548","ADDRESS2":"Departure Shop, past security.","ADDRESS":"World Duty Free","ZIP_OR_POSTAL":"RH6 0NP","EVENT_IMAGE":"","EVENT_END_DATE":null,"EVENT_FEATURES":null,"EVENT_TIMES":"","LONGITUDE":"-.1650585","EVENT_START_DATE":null,"STATE_OR_PROVINCE":"Gatwick"},"367347":{"DISTANCE":"1519.56389728008","DOOR_ID":367347,"STORE_TYPE":"","CITY":"Montreal","SERVICES":null,"COUNTRY":"Canada","STORE_HOURS":null,"EVENT_NAME":"","DOORNAME":"Murale","PHONE1":"514.875.1593","REGION":null,"LATITUDE":"45.5017817","ADDRESS2":"","ADDRESS":"1 Place Ville Marie","ZIP_OR_POSTAL":"H3B 3Y1","EVENT_IMAGE":"","EVENT_END_DATE":null,"EVENT_FEATURES":null,"EVENT_TIMES":"","LONGITUDE":"-73.567755","EVENT_START_DATE":null,"STATE_OR_PROVINCE":"QC"},"257258":{"DISTANCE":"1037.66530445188","DOOR_ID":257258,"STORE_TYPE":"","CITY":"La Isla, Cancun","SERVICES":null,"COUNTRY":"Mexico","STORE_HOURS":null,"EVENT_NAME":"","DOORNAME":"Liverpool","PHONE1":"(998) 848-7880","REGION":null,"LATITUDE":"21.115226","ADDRESS2":"P.A. Ampliacion Centro Com.","ADDRESS":"Blvd. Kukulcan, KM 12.5 Local 20&21","ZIP_OR_POSTAL":"77500","EVENT_IMAGE":"","EVENT_END_DATE":null,"EVENT_FEATURES":null,"EVENT_TIMES":"","LONGITUDE":"-86.7680322","EVENT_START_DATE":null,"STATE_OR_PROVINCE":"Quintana Roo"},"256494":{"DISTANCE":"597.839290171103","DOOR_ID":256494,"STORE_TYPE":"","CITY":"Birmingham","SERVICES":null,"COUNTRY":"UNITED STATES","STORE_HOURS":null,"EVENT_NAME":"","DOORNAME":"Belk","PHONE1":"205.987.4200","REGION":null,"LATITUDE":"33.3779328","ADDRESS2":"","ADDRESS":"2100 Riverchase Galleria","ZIP_OR_POSTAL":"35244","EVENT_IMAGE":"","EVENT_END_DATE":null,"EVENT_FEATURES":null,"EVENT_TIMES":"","LONGITUDE":"-86.8108249","EVENT_START_DATE":null,"STATE_OR_PROVINCE":"AL"},"257165":{"DISTANCE":"6840.68962762745","DOOR_ID":257165,"STORE_TYPE":"","CITY":"Ulsan","SERVICES":null,"COUNTRY":"Korea","STORE_HOURS":null,"EVENT_NAME":"","DOORNAME":"Lotte Ulsan","PHONE1":"82-52-276-4870","REGION":null,"LATITUDE":"35.5417966","ADDRESS2":"Nam-Ku","ADDRESS":"1480-1 Samsan-Dong","ZIP_OR_POSTAL":"","EVENT_IMAGE":"","EVENT_END_DATE":null,"EVENT_FEATURES":null,"EVENT_TIMES":"","LONGITUDE":"129.3449807","EVENT_START_DATE":null,"STATE_OR_PROVINCE":""},"2050004":{"DISTANCE":"5762.27657188604","DOOR_ID":2050004,"STORE_TYPE":"","CITY":"Moscow","SERVICES":null,"COUNTRY":"Russia","STORE_HOURS":null,"EVENT_NAME":"","DOORNAME":"Rivoli Modniy Season","PHONE1":"+7.915.409.65.81","REGION":null,"LATITUDE":"55.7570051","ADDRESS2":"","ADDRESS":"Okhotniy ryad,2 ","ZIP_OR_POSTAL":"109012","EVENT_IMAGE":"","EVENT_END_DATE":null,"EVENT_FEATURES":null,"EVENT_TIMES":"","LONGITUDE":"37.6164606","EVENT_START_DATE":null,"STATE_OR_PROVINCE":""},"256666":{"DISTANCE":"740.641189138913","DOOR_ID":256666,"STORE_TYPE":"","CITY":"Louisville","SERVICES":null,"COUNTRY":"UNITED STATES","STORE_HOURS":null,"EVENT_NAME":"","DOORNAME":"Macy's","PHONE1":"502.423.3000","REGION":null,"LATITUDE":"38.24721","ADDRESS2":"","ADDRESS":"7900 Shelbyville Road","ZIP_OR_POSTAL":"40222","EVENT_IMAGE":"","EVENT_END_DATE":null,"EVENT_FEATURES":null,"EVENT_TIMES":"","LONGITUDE":"-85.6103399","EVENT_START_DATE":null,"STATE_OR_PROVINCE":"KY"},"256363":{"DISTANCE":"688.180039025673","DOOR_ID":256363,"STORE_TYPE":"","CITY":"Vail","SERVICES":null,"COUNTRY":"UNITED STATES","STORE_HOURS":null,"EVENT_NAME":"","DOORNAME":"COS BAR","PHONE1":"970.476.7734","REGION":null,"LATITUDE":"39.6406532","ADDRESS2":"","ADDRESS":"188 Gore Creek Drive","ZIP_OR_POSTAL":"81657","EVENT_IMAGE":"","EVENT_END_DATE":null,"EVENT_FEATURES":null,"EVENT_TIMES":"","LONGITUDE":"-106.3748934","EVENT_START_DATE":null,"STATE_OR_PROVINCE":"CO"},"1667364":{"DISTANCE":"8036.60622666717","DOOR_ID":1667364,"STORE_TYPE":"","CITY":"Dubai","SERVICES":null,"COUNTRY":"United Arab Emirates","STORE_HOURS":null,"EVENT_NAME":"","DOORNAME":"Bobbi Brown","PHONE1":"+971 4 2329963","REGION":null,"LATITUDE":"25.22262","ADDRESS2":"Ground Floor, Dubai Festival City","ADDRESS":"Festival Centre","ZIP_OR_POSTAL":"","EVENT_IMAGE":"","EVENT_END_DATE":null,"EVENT_FEATURES":null,"EVENT_TIMES":"","LONGITUDE":"55.354699","EVENT_START_DATE":null,"STATE_OR_PROVINCE":""},"441364":{"DISTANCE":"856.590224494293","DOOR_ID":441364,"STORE_TYPE":"","CITY":"Scottsdale","SERVICES":null,"COUNTRY":"UNITED STATES","STORE_HOURS":null,"EVENT_NAME":"","DOORNAME":"Sephora Scottsdale Qtr","PHONE1":"","REGION":null,"LATITUDE":"33.6239096","ADDRESS2":"Suite #110","ADDRESS":"15169 N. Scottsdale Road","ZIP_OR_POSTAL":"85254","EVENT_IMAGE":"","EVENT_END_DATE":null,"EVENT_FEATURES":null,"EVENT_TIMES":"","LONGITUDE":"-111.9256487","EVENT_START_DATE":null,"STATE_OR_PROVINCE":"AZ"},"5874201":{"DISTANCE":"1206.86732242068","DOOR_ID":5874201,"STORE_TYPE":"","CITY":"Toronto","SERVICES":null,"COUNTRY":"Canada","STORE_HOURS":null,"EVENT_NAME":"","DOORNAME":"Sephora Canada Llc-Bloor","PHONE1":"","REGION":null,"LATITUDE":"43.6688209","ADDRESS2":"","ADDRESS":"131 Bloor Street West #1-13","ZIP_OR_POSTAL":"","EVENT_IMAGE":"","EVENT_END_DATE":null,"EVENT_FEATURES":null,"EVENT_TIMES":"","LONGITUDE":"-79.392286","EVENT_START_DATE":null,"STATE_OR_PROVINCE":"ON"},"256806":{"DISTANCE":"5144.42882436578","DOOR_ID":256806,"STORE_TYPE":"","CITY":"St Etienne","SERVICES":null,"COUNTRY":"France","STORE_HOURS":null,"EVENT_NAME":"","DOORNAME":"Elytis","PHONE1":"04.77.37.10.36","REGION":null,"LATITUDE":"45.4372023","ADDRESS2":"","ADDRESS":"6, rue Alsace Lorraine","ZIP_OR_POSTAL":"42000","EVENT_IMAGE":"","EVENT_END_DATE":null,"EVENT_FEATURES":null,"EVENT_TIMES":"","LONGITUDE":"4.3884522","EVENT_START_DATE":null,"STATE_OR_PROVINCE":""},"256629":{"DISTANCE":"1069.43553722399","DOOR_ID":256629,"STORE_TYPE":"","CITY":"Raleigh","SERVICES":null,"COUNTRY":"UNITED STATES","STORE_HOURS":null,"EVENT_NAME":"","DOORNAME":"Belk","PHONE1":"919.782.7010 x275","REGION":null,"LATITUDE":"35.841844","ADDRESS2":"","ADDRESS":"4325 Glenwood Avenue","ZIP_OR_POSTAL":"27612","EVENT_IMAGE":"","EVENT_END_DATE":null,"EVENT_FEATURES":null,"EVENT_TIMES":"","LONGITUDE":"-78.681851","EVENT_START_DATE":null,"STATE_OR_PROVINCE":"NC"},"393629":{"DISTANCE":"6775.84258087082","DOOR_ID":393629,"STORE_TYPE":"airport","CITY":"Larnaca","SERVICES":null,"COUNTRY":"Cyprus","STORE_HOURS":null,"EVENT_NAME":"","DOORNAME":"Larnaca International Airport","PHONE1":" (357)-24-841-404","REGION":null,"LATITUDE":"34.9166667","ADDRESS2":" Departures Shop, past security (straight then left)","ADDRESS":"CTC - ARI Airports Ltd","ZIP_OR_POSTAL":"CY-6650","EVENT_IMAGE":"","EVENT_END_DATE":null,"EVENT_FEATURES":null,"EVENT_TIMES":"","LONGITUDE":"33.6333333","EVENT_START_DATE":null,"STATE_OR_PROVINCE":""},"256530":{"DISTANCE":"6845.85586670946","DOOR_ID":256530,"STORE_TYPE":"","CITY":"Cheonan-Si","SERVICES":null,"COUNTRY":"Korea","STORE_HOURS":null,"EVENT_NAME":"","DOORNAME":"Shinsegae Chungcheong - Cheonan","PHONE1":"82-41-640-5025","REGION":null,"LATITUDE":"36.815129","ADDRESS2":"Dongnam-Gu","ADDRESS":"354-1 Shinbu-Dong","ZIP_OR_POSTAL":"","EVENT_IMAGE":"","EVENT_END_DATE":null,"EVENT_FEATURES":null,"EVENT_TIMES":"","LONGITUDE":"127.1138939","EVENT_START_DATE":null,"STATE_OR_PROVINCE":"Chungcheongnam-Do"},"367325":{"DISTANCE":"1508.66341106408","DOOR_ID":367325,"STORE_TYPE":"","CITY":"Calgary","SERVICES":null,"COUNTRY":"Canada","STORE_HOURS":null,"EVENT_NAME":"","DOORNAME":"Sephora","PHONE1":"403.355.3500","REGION":null,"LATITUDE":"50.9964781","ADDRESS2":"6455 Macleod Trail SW","ADDRESS":"Chinook Centre","ZIP_OR_POSTAL":"T2H 0K8","EVENT_IMAGE":"","EVENT_END_DATE":null,"EVENT_FEATURES":null,"EVENT_TIMES":"","LONGITUDE":"-114.0741402","EVENT_START_DATE":null,"STATE_OR_PROVINCE":"AB"},"5936189":{"DISTANCE":"1186.78327544064","DOOR_ID":5936189,"STORE_TYPE":"","CITY":"Oakville","SERVICES":null,"COUNTRY":"","STORE_HOURS":null,"EVENT_NAME":"","DOORNAME":"Sephora Canada-Oakville Place","PHONE1":"","REGION":null,"LATITUDE":"43.461607","ADDRESS2":"","ADDRESS":"240 Leighland Avenue","ZIP_OR_POSTAL":"","EVENT_IMAGE":"","EVENT_END_DATE":null,"EVENT_FEATURES":null,"EVENT_TIMES":"","LONGITUDE":"-79.6868686","EVENT_START_DATE":null,"STATE_OR_PROVINCE":"ON"},"256741":{"DISTANCE":"252.204815810202","DOOR_ID":256741,"STORE_TYPE":"","CITY":"San Antonio","SERVICES":null,"COUNTRY":"UNITED STATES","STORE_HOURS":null,"EVENT_NAME":"","DOORNAME":"Nordstrom","PHONE1":"","REGION":null,"LATITUDE":"29.592901","ADDRESS2":"","ADDRESS":"15900 La Cantera Parkway","ZIP_OR_POSTAL":"78256","EVENT_IMAGE":"","EVENT_END_DATE":null,"EVENT_FEATURES":null,"EVENT_TIMES":"","LONGITUDE":"-98.618066","EVENT_START_DATE":null,"STATE_OR_PROVINCE":"TX"},"1506925":{"DISTANCE":"10033.5061642534","DOOR_ID":1506925,"STORE_TYPE":"Downtown","CITY":"Jakarta","SERVICES":null,"COUNTRY":"Indonesia","STORE_HOURS":null,"EVENT_NAME":"","DOORNAME":"Lotte Downtown Jakarta","PHONE1":"no phone","REGION":null,"LATITUDE":"-6.2087634","ADDRESS2":"7th Fl., Ciputra World, Jl. Prof. Dr. Satrio Kav. 3-5\r\nKaret Kuningan-Setia Budi, Jakarta Selatan 12940, INDONESIA ","ADDRESS":"Lotte Duty Free Indonesia","ZIP_OR_POSTAL":"","EVENT_IMAGE":"","EVENT_END_DATE":null,"EVENT_FEATURES":null,"EVENT_TIMES":"","LONGITUDE":"106.845599","EVENT_START_DATE":null,"STATE_OR_PROVINCE":""},"257326":{"DISTANCE":"4420.48082254623","DOOR_ID":257326,"STORE_TYPE":"","CITY":"Cork","SERVICES":null,"COUNTRY":"Ireland","STORE_HOURS":null,"EVENT_NAME":"","DOORNAME":"Brown Thomas","PHONE1":"00 353 21 480 5549 (direct)","REGION":null,"LATITUDE":"51.8989284","ADDRESS2":"","ADDRESS":"18-21 Patrick Street","ZIP_OR_POSTAL":"","EVENT_IMAGE":"","EVENT_END_DATE":null,"EVENT_FEATURES":null,"EVENT_TIMES":"","LONGITUDE":"-8.4709473","EVENT_START_DATE":null,"STATE_OR_PROVINCE":""},"256327":{"DISTANCE":"803.934622107105","DOOR_ID":256327,"STORE_TYPE":"","CITY":"Chicago","SERVICES":null,"COUNTRY":"UNITED STATES","STORE_HOURS":null,"EVENT_NAME":"","DOORNAME":"bluemercury","PHONE1":"773.327.6900","REGION":null,"LATITUDE":"41.9222064","ADDRESS2":"","ADDRESS":"2208 North Halsted","ZIP_OR_POSTAL":"60614","EVENT_IMAGE":"","EVENT_END_DATE":null,"EVENT_FEATURES":null,"EVENT_TIMES":"","LONGITUDE":"-87.6486683","EVENT_START_DATE":null,"STATE_OR_PROVINCE":"IL"},"470302":{"DISTANCE":"7350.42911691341","DOOR_ID":470302,"STORE_TYPE":"","CITY":"Shanghai","SERVICES":null,"COUNTRY":"China Mainland","STORE_HOURS":null,"EVENT_NAME":"","DOORNAME":"Grand Gateway Shanghai","PHONE1":"021-64752517","REGION":null,"LATITUDE":"31.2001038","ADDRESS2":"","ADDRESS":"No.1 HongQiao Road Shanghai","ZIP_OR_POSTAL":"200030","EVENT_IMAGE":"","EVENT_END_DATE":null,"EVENT_FEATURES":null,"EVENT_TIMES":"","LONGITUDE":"121.39852","EVENT_START_DATE":null,"STATE_OR_PROVINCE":""},"256732":{"DISTANCE":"6565.92224424241","DOOR_ID":256732,"STORE_TYPE":"","CITY":"Antalya","SERVICES":null,"COUNTRY":"Turkey","STORE_HOURS":null,"EVENT_NAME":"","DOORNAME":"Boyner","PHONE1":"0242.230.14.70-88","REGION":null,"LATITUDE":"36.88414","ADDRESS2":"","ADDRESS":"100.Yıl Bulvarı, Arap Suyu Mevkii","ZIP_OR_POSTAL":"","EVENT_IMAGE":"","EVENT_END_DATE":null,"EVENT_FEATURES":null,"EVENT_TIMES":"","LONGITUDE":"30.70563","EVENT_START_DATE":null,"STATE_OR_PROVINCE":""},"256361":{"DISTANCE":"926.699152903808","DOOR_ID":256361,"STORE_TYPE":"","CITY":"Kentwood","SERVICES":null,"COUNTRY":"UNITED STATES","STORE_HOURS":null,"EVENT_NAME":"","DOORNAME":"Macy's","PHONE1":"616.940.3267","REGION":null,"LATITUDE":"42.9125233","ADDRESS2":"","ADDRESS":"3165 28th Street, SE","ZIP_OR_POSTAL":"49512-1674","EVENT_IMAGE":"","EVENT_END_DATE":null,"EVENT_FEATURES":null,"EVENT_TIMES":"","LONGITUDE":"-85.5889637","EVENT_START_DATE":null,"STATE_OR_PROVINCE":"MI"},"256753":{"DISTANCE":"8572.14081987248","DOOR_ID":256753,"STORE_TYPE":"","CITY":"Chatswood","SERVICES":null,"COUNTRY":"Australia","STORE_HOURS":null,"EVENT_NAME":"","DOORNAME":"David Jones Chatswood","PHONE1":"02 9844 4188","REGION":null,"LATITUDE":"-33.7935422","ADDRESS2":"","ADDRESS":"91 Archer Street","ZIP_OR_POSTAL":"2057","EVENT_IMAGE":"","EVENT_END_DATE":null,"EVENT_FEATURES":null,"EVENT_TIMES":"","LONGITUDE":"151.1843921","EVENT_START_DATE":null,"STATE_OR_PROVINCE":"NSW"},"256742":{"DISTANCE":"1151.71149136505","DOOR_ID":256742,"STORE_TYPE":"","CITY":"Lawrenceville","SERVICES":null,"COUNTRY":"UNITED STATES","STORE_HOURS":null,"EVENT_NAME":"","DOORNAME":"Lord & Taylor","PHONE1":"609.799.9500 EXT 246","REGION":null,"LATITUDE":"37.226693","ADDRESS2":"","ADDRESS":"Route 1 @ Quakerbridge Rd","ZIP_OR_POSTAL":"08648","EVENT_IMAGE":"","EVENT_END_DATE":null,"EVENT_FEATURES":null,"EVENT_TIMES":"","LONGITUDE":"-77.401371","EVENT_START_DATE":null,"STATE_OR_PROVINCE":"NJ"},"257318":{"DISTANCE":"8107.38331561069","DOOR_ID":257318,"STORE_TYPE":"","CITY":"Hong Kong","SERVICES":null,"COUNTRY":"Hong Kong, SAR of China","STORE_HOURS":null,"EVENT_NAME":"","DOORNAME":"Faces","PHONE1":"852.2110.9387","REGION":null,"LATITUDE":"22.2478599","ADDRESS2":"Harbour City, Tsimshatsui","ADDRESS":"Shop 202, Ocean Terminal","ZIP_OR_POSTAL":"","EVENT_IMAGE":"","EVENT_END_DATE":null,"EVENT_FEATURES":null,"EVENT_TIMES":"","LONGITUDE":"114.2033843","EVENT_START_DATE":null,"STATE_OR_PROVINCE":""},"257053":{"DISTANCE":"5188.57085942725","DOOR_ID":257053,"STORE_TYPE":"","CITY":"Geneva","SERVICES":null,"COUNTRY":"Switzerland","STORE_HOURS":null,"EVENT_NAME":"","DOORNAME":"Bongénie","PHONE1":"41.22.311.0111","REGION":null,"LATITUDE":"46.2029779","ADDRESS2":"","ADDRESS":"Rue du Marché 34","ZIP_OR_POSTAL":"CH-1204","EVENT_IMAGE":"","EVENT_END_DATE":null,"EVENT_FEATURES":null,"EVENT_TIMES":"","LONGITUDE":"6.1471209","EVENT_START_DATE":null,"STATE_OR_PROVINCE":""},"256781":{"DISTANCE":"7837.96870851461","DOOR_ID":256781,"STORE_TYPE":"","CITY":"Chengdu","SERVICES":null,"COUNTRY":"China Mainland","STORE_HOURS":null,"EVENT_NAME":"","DOORNAME":"Isetan","PHONE1":"86.28.8671.8776","REGION":null,"LATITUDE":"30.6524543","ADDRESS2":"","ADDRESS":"8 Da Ke Jia Lane, Block B, Lido Plaza","ZIP_OR_POSTAL":"610016","EVENT_IMAGE":"","EVENT_END_DATE":null,"EVENT_FEATURES":null,"EVENT_TIMES":"","LONGITUDE":"104.0735692","EVENT_START_DATE":null,"STATE_OR_PROVINCE":""},"352182":{"DISTANCE":"1306.97614599813","DOOR_ID":352182,"STORE_TYPE":"","CITY":"Philadelphia","SERVICES":null,"COUNTRY":"UNITED STATES","STORE_HOURS":null,"EVENT_NAME":"","DOORNAME":"U Penn","PHONE1":"","REGION":null,"LATITUDE":"39.9583587","ADDRESS2":"3603 Walnut Street","ADDRESS":"Blue Mercury","ZIP_OR_POSTAL":"19104","EVENT_IMAGE":"","EVENT_END_DATE":null,"EVENT_FEATURES":null,"EVENT_TIMES":"","LONGITUDE":"-75.1953934","EVENT_START_DATE":null,"STATE_OR_PROVINCE":"PA"},"257066":{"DISTANCE":"7733.11748680046","DOOR_ID":257066,"STORE_TYPE":"","CITY":"Hsinchu City","SERVICES":null,"COUNTRY":"Taiwan, China","STORE_HOURS":null,"EVENT_NAME":"","DOORNAME":"Far Eastern","PHONE1":"886-3-5231221","REGION":null,"LATITUDE":"24.8039455","ADDRESS2":"","ADDRESS":"No.323, Sida Rd., East District","ZIP_OR_POSTAL":"300","EVENT_IMAGE":"","EVENT_END_DATE":null,"EVENT_FEATURES":null,"EVENT_TIMES":"","LONGITUDE":"120.9646866","EVENT_START_DATE":null,"STATE_OR_PROVINCE":""},"256949":{"DISTANCE":"809.433441564643","DOOR_ID":256949,"STORE_TYPE":"","CITY":"Vernon Hills","SERVICES":null,"COUNTRY":"UNITED STATES","STORE_HOURS":null,"EVENT_NAME":"","DOORNAME":"Macy's","PHONE1":"847-918-2700","REGION":null,"LATITUDE":"42.241188","ADDRESS2":"","ADDRESS":"1 Hawthorn Center","ZIP_OR_POSTAL":"60061","EVENT_IMAGE":"","EVENT_END_DATE":null,"EVENT_FEATURES":null,"EVENT_TIMES":"","LONGITUDE":"-87.960802","EVENT_START_DATE":null,"STATE_OR_PROVINCE":"IL"},"2050103":{"DISTANCE":"4967.53641337897","DOOR_ID":2050103,"STORE_TYPE":"","CITY":"Aarhus C","SERVICES":null,"COUNTRY":"Denmark","STORE_HOURS":null,"EVENT_NAME":"","DOORNAME":"Magasin Århus","PHONE1":"0045 87 31 64 06","REGION":null,"LATITUDE":"56.157227","ADDRESS2":"","ADDRESS":"Immervad 2-8","ZIP_OR_POSTAL":"8000","EVENT_IMAGE":"","EVENT_END_DATE":null,"EVENT_FEATURES":null,"EVENT_TIMES":"","LONGITUDE":"10.206751","EVENT_START_DATE":null,"STATE_OR_PROVINCE":""},"257147":{"DISTANCE":"6813.46872428108","DOOR_ID":257147,"STORE_TYPE":"","CITY":"Seoul","SERVICES":null,"COUNTRY":"Korea","STORE_HOURS":null,"EVENT_NAME":"","DOORNAME":"Hyundai Mokdong","PHONE1":"82-2-2163-1153","REGION":null,"LATITUDE":"37.5366923","ADDRESS2":"Yangcheon-Ku","ADDRESS":"916 Mok-Dong","ZIP_OR_POSTAL":"","EVENT_IMAGE":"","EVENT_END_DATE":null,"EVENT_FEATURES":null,"EVENT_TIMES":"","LONGITUDE":"126.874182","EVENT_START_DATE":null,"STATE_OR_PROVINCE":""},"256702":{"DISTANCE":"5355.88795845844","DOOR_ID":256702,"STORE_TYPE":"","CITY":"Innsbruck","SERVICES":null,"COUNTRY":"Austria","STORE_HOURS":null,"EVENT_NAME":"","DOORNAME":"Douglas","PHONE1":"43-512-32-59-28","REGION":null,"LATITUDE":"47.263485","ADDRESS2":"","ADDRESS":"Amarser Seestraße 56a, Top 112","ZIP_OR_POSTAL":"6029","EVENT_IMAGE":"","EVENT_END_DATE":null,"EVENT_FEATURES":null,"EVENT_TIMES":"","LONGITUDE":"11.4294366","EVENT_START_DATE":null,"STATE_OR_PROVINCE":""},"5936070":{"DISTANCE":"1206.77142214002","DOOR_ID":5936070,"STORE_TYPE":"","CITY":"Toronto","SERVICES":null,"COUNTRY":"","STORE_HOURS":null,"EVENT_NAME":"","DOORNAME":"Hudsons Bay-Queen St","PHONE1":"","REGION":null,"LATITUDE":"43.6517906","ADDRESS2":"","ADDRESS":"176 Yonge Street","ZIP_OR_POSTAL":"","EVENT_IMAGE":"","EVENT_END_DATE":null,"EVENT_FEATURES":null,"EVENT_TIMES":"","LONGITUDE":"-79.3801688","EVENT_START_DATE":null,"STATE_OR_PROVINCE":"ON"},"257351":{"DISTANCE":"9004.36635561464","DOOR_ID":257351,"STORE_TYPE":"","CITY":"Nonthaburi","SERVICES":null,"COUNTRY":"Thailand","STORE_HOURS":null,"EVENT_NAME":"","DOORNAME":"The Mall Ngam-Wongwan","PHONE1":"662-951-7902","REGION":null,"LATITUDE":"13.8619528","ADDRESS2":"Bangkean","ADDRESS":"30/39-50 Ngam-Wongwan Road","ZIP_OR_POSTAL":"11000","EVENT_IMAGE":"","EVENT_END_DATE":null,"EVENT_FEATURES":null,"EVENT_TIMES":"","LONGITUDE":"100.4958678","EVENT_START_DATE":null,"STATE_OR_PROVINCE":""},"257363":{"DISTANCE":"4648.54483803019","DOOR_ID":257363,"STORE_TYPE":"","CITY":"York","SERVICES":null,"COUNTRY":"United Kingdom","STORE_HOURS":null,"EVENT_NAME":"","DOORNAME":"Browns of York","PHONE1":"01904 611166","REGION":null,"LATITUDE":"53.959799","ADDRESS2":"","ADDRESS":"Davygate","ZIP_OR_POSTAL":"YO1 8QT","EVENT_IMAGE":"","EVENT_END_DATE":null,"EVENT_FEATURES":null,"EVENT_TIMES":"","LONGITUDE":"-1.0826716","EVENT_START_DATE":null,"STATE_OR_PROVINCE":"Yorkshire"},"1667373":{"DISTANCE":"7809.24822974259","DOOR_ID":1667373,"STORE_TYPE":"","CITY":"Riyadh","SERVICES":null,"COUNTRY":"Saudi Arabia","STORE_HOURS":null,"EVENT_NAME":"","DOORNAME":"Bobbi Brown","PHONE1":"+9661 1415 1343","REGION":null,"LATITUDE":"24.633333","ADDRESS2":"Ground Floor, Gate 3","ADDRESS":"Al Nakheel Mall","ZIP_OR_POSTAL":"","EVENT_IMAGE":"","EVENT_END_DATE":null,"EVENT_FEATURES":null,"EVENT_TIMES":"","LONGITUDE":"46.716667","EVENT_START_DATE":null,"STATE_OR_PROVINCE":""},"1667360":{"DISTANCE":"8036.17386725651","DOOR_ID":1667360,"STORE_TYPE":"","CITY":"Dubai","SERVICES":null,"COUNTRY":"United Arab Emirates","STORE_HOURS":null,"EVENT_NAME":"","DOORNAME":"Bloomingdales","PHONE1":"","REGION":null,"LATITUDE":"25.196878","ADDRESS2":"Ground Floor, Near Fashion Avenue","ADDRESS":"The Dubai Mall","ZIP_OR_POSTAL":"","EVENT_IMAGE":"","EVENT_END_DATE":null,"EVENT_FEATURES":null,"EVENT_TIMES":"","LONGITUDE":"55.27945","EVENT_START_DATE":null,"STATE_OR_PROVINCE":""},"4497496":{"DISTANCE":"9248.49440895923","DOOR_ID":4497496,"STORE_TYPE":"","CITY":"Bangalore","SERVICES":null,"COUNTRY":"India","STORE_HOURS":null,"EVENT_NAME":"","DOORNAME":"Bobbi Brown Store","PHONE1":"(+91) 80 43709441","REGION":null,"LATITUDE":"12.9700713","ADDRESS2":"","ADDRESS":"Garuda Mall, Magrath Road, Ashok Nagar, Bangalore","ZIP_OR_POSTAL":"560025","EVENT_IMAGE":"","EVENT_END_DATE":null,"EVENT_FEATURES":null,"EVENT_TIMES":"","LONGITUDE":"77.6098644","EVENT_START_DATE":null,"STATE_OR_PROVINCE":"Karnataka"},"257067":{"DISTANCE":"7863.52464931129","DOOR_ID":257067,"STORE_TYPE":"","CITY":"Tainen","SERVICES":null,"COUNTRY":"Taiwan, China","STORE_HOURS":null,"EVENT_NAME":"","DOORNAME":"Far Eastern","PHONE1":"886-6-208-1775","REGION":null,"LATITUDE":"22.98133","ADDRESS2":"","ADDRESS":"1F, No.210, Chien Fong Rd.","ZIP_OR_POSTAL":"701","EVENT_IMAGE":"","EVENT_END_DATE":null,"EVENT_FEATURES":null,"EVENT_TIMES":"","LONGITUDE":"120.2224227","EVENT_START_DATE":null,"STATE_OR_PROVINCE":""},"256760":{"DISTANCE":"8301.31088690112","DOOR_ID":256760,"STORE_TYPE":"","CITY":"Broadbeach","SERVICES":null,"COUNTRY":"Australia","STORE_HOURS":null,"EVENT_NAME":"","DOORNAME":"Myer Pacific Fair","PHONE1":"07 5595 8124","REGION":null,"LATITUDE":"-28.0342557","ADDRESS2":"","ADDRESS":"Hooker Blvd","ZIP_OR_POSTAL":"4218","EVENT_IMAGE":"","EVENT_END_DATE":null,"EVENT_FEATURES":null,"EVENT_TIMES":"","LONGITUDE":"153.4304814","EVENT_START_DATE":null,"STATE_OR_PROVINCE":"QLD"},"256388":{"DISTANCE":"1401.36209682479","DOOR_ID":256388,"STORE_TYPE":"","CITY":"Garden City","SERVICES":null,"COUNTRY":"UNITED STATES","STORE_HOURS":null,"EVENT_NAME":"","DOORNAME":"Bloomingdale's","PHONE1":"516.873.2700","REGION":null,"LATITUDE":"40.7422742","ADDRESS2":"","ADDRESS":"630 Old Country Road","ZIP_OR_POSTAL":"11530","EVENT_IMAGE":"","EVENT_END_DATE":null,"EVENT_FEATURES":null,"EVENT_TIMES":"","LONGITUDE":"-73.615576","EVENT_START_DATE":null,"STATE_OR_PROVINCE":"NY"},"352252":{"DISTANCE":"1744.30061924358","DOOR_ID":352252,"STORE_TYPE":"","CITY":"Vancouver","SERVICES":null,"COUNTRY":"Canada","STORE_HOURS":null,"EVENT_NAME":"","DOORNAME":"Sephora","PHONE1":"","REGION":null,"LATITUDE":"49.2830972","ADDRESS2":"701 W Georgia Street P.O.Box 10196","ADDRESS":"Pacific Centre","ZIP_OR_POSTAL":"V7Y 1E4","EVENT_IMAGE":"","EVENT_END_DATE":null,"EVENT_FEATURES":null,"EVENT_TIMES":"","LONGITUDE":"-123.1175032","EVENT_START_DATE":null,"STATE_OR_PROVINCE":"BC"},"1506930":{"DISTANCE":"9697.46467761897","DOOR_ID":1506930,"STORE_TYPE":"Airport","CITY":"Singapore","SERVICES":null,"COUNTRY":"Singapore","STORE_HOURS":null,"EVENT_NAME":"","DOORNAME":"Shilla Changi Airport T1 - West Gondola","PHONE1":"(65) 6545-5841","REGION":null,"LATITUDE":"1.3611433","ADDRESS2":"Airport Boulevard, Changi, 918141, Singapore","ADDRESS":"Singapore Changi Airport T1 Departure Hall ","ZIP_OR_POSTAL":"","EVENT_IMAGE":"","EVENT_END_DATE":null,"EVENT_FEATURES":null,"EVENT_TIMES":"","LONGITUDE":"103.9901518","EVENT_START_DATE":null,"STATE_OR_PROVINCE":""},"5936178":{"DISTANCE":"1959.79888066553","DOOR_ID":5936178,"STORE_TYPE":"","CITY":"Halifax","SERVICES":null,"COUNTRY":"","STORE_HOURS":null,"EVENT_NAME":"","DOORNAME":"Sephora Canada-Halifax","PHONE1":"","REGION":null,"LATITUDE":"44.6493029","ADDRESS2":"","ADDRESS":"7001 Mumford Rd #103","ZIP_OR_POSTAL":"","EVENT_IMAGE":"","EVENT_END_DATE":null,"EVENT_FEATURES":null,"EVENT_TIMES":"","LONGITUDE":"-63.618185","EVENT_START_DATE":null,"STATE_OR_PROVINCE":"NS"},"470208":{"DISTANCE":"6938.33850671381","DOOR_ID":470208,"STORE_TYPE":"","CITY":"Haifa","SERVICES":null,"COUNTRY":"Israel","STORE_HOURS":null,"EVENT_NAME":"","DOORNAME":"Grand Haifa Grand Mall Haifa","PHONE1":" 972-4-6442075","REGION":null,"LATITUDE":"32.7940463","ADDRESS2":"","ADDRESS":"39 Simcha Golan St","ZIP_OR_POSTAL":"34384","EVENT_IMAGE":"","EVENT_END_DATE":null,"EVENT_FEATURES":null,"EVENT_TIMES":"","LONGITUDE":"34.989571","EVENT_START_DATE":null,"STATE_OR_PROVINCE":""},"257327":{"DISTANCE":"4470.62950611287","DOOR_ID":257327,"STORE_TYPE":"","CITY":"Dublin","SERVICES":null,"COUNTRY":"Ireland","STORE_HOURS":null,"EVENT_NAME":"","DOORNAME":"Brown Thomas","PHONE1":"00 353 1 605 6767","REGION":null,"LATITUDE":"53.3426692","ADDRESS2":"","ADDRESS":"89-95 Grafton Street","ZIP_OR_POSTAL":"","EVENT_IMAGE":"","EVENT_END_DATE":null,"EVENT_FEATURES":null,"EVENT_TIMES":"","LONGITUDE":"-6.2595756","EVENT_START_DATE":null,"STATE_OR_PROVINCE":""},"367345":{"DISTANCE":"1656.95649535748","DOOR_ID":367345,"STORE_TYPE":"","CITY":"Quebec City","SERVICES":null,"COUNTRY":"Canada","STORE_HOURS":null,"EVENT_NAME":"","DOORNAME":"Holt Renfrew","PHONE1":"418.656.6783","REGION":null,"LATITUDE":"46.7736739","ADDRESS2":"","ADDRESS":"2452 Laurier Boulevard","ZIP_OR_POSTAL":"G1V 2L1","EVENT_IMAGE":"","EVENT_END_DATE":null,"EVENT_FEATURES":null,"EVENT_TIMES":"","LONGITUDE":"-71.2760965","EVENT_START_DATE":null,"STATE_OR_PROVINCE":"QC"},"257080":{"DISTANCE":"9014.0306847516","DOOR_ID":257080,"STORE_TYPE":"","CITY":"Bangkok","SERVICES":null,"COUNTRY":"Thailand","STORE_HOURS":null,"EVENT_NAME":"","DOORNAME":"Central Bangna","PHONE1":"662-745-7483","REGION":null,"LATITUDE":"13.6741713","ADDRESS2":"Bangna","ADDRESS":"1090 Moo12, Bangna-Trad Road","ZIP_OR_POSTAL":"10260","EVENT_IMAGE":"","EVENT_END_DATE":null,"EVENT_FEATURES":null,"EVENT_TIMES":"","LONGITUDE":"100.608395","EVENT_START_DATE":null,"STATE_OR_PROVINCE":""},"256540":{"DISTANCE":"1413.13546555828","DOOR_ID":256540,"STORE_TYPE":"","CITY":"Huntington","SERVICES":null,"COUNTRY":"UNITED STATES","STORE_HOURS":null,"EVENT_NAME":"","DOORNAME":"Saks Fifth Avenue","PHONE1":"631.350.1100","REGION":null,"LATITUDE":"40.8251147","ADDRESS2":"","ADDRESS":"230 Walt Whitman Road","ZIP_OR_POSTAL":"11746","EVENT_IMAGE":"","EVENT_END_DATE":null,"EVENT_FEATURES":null,"EVENT_TIMES":"","LONGITUDE":"-73.4121886","EVENT_START_DATE":null,"STATE_OR_PROVINCE":"NY"},"257069":{"DISTANCE":"7877.87719472503","DOOR_ID":257069,"STORE_TYPE":"","CITY":"Kaohsiung City","SERVICES":null,"COUNTRY":"Taiwan, China","STORE_HOURS":null,"EVENT_NAME":"","DOORNAME":"Han Shin","PHONE1":"886-7-552-1517","REGION":null,"LATITUDE":"22.6877358","ADDRESS2":"","ADDRESS":"No.777, Bo-ai 2nd Rd., Zuoying District","ZIP_OR_POSTAL":"813","EVENT_IMAGE":"","EVENT_END_DATE":null,"EVENT_FEATURES":null,"EVENT_TIMES":"","LONGITUDE":"120.2916524","EVENT_START_DATE":null,"STATE_OR_PROVINCE":""},"256938":{"DISTANCE":"1878.30486892629","DOOR_ID":256938,"STORE_TYPE":"","CITY":"Hamilton","SERVICES":null,"COUNTRY":"Bermuda","STORE_HOURS":null,"EVENT_NAME":"","DOORNAME":"A.S. Cooper","PHONE1":"441.295.3961","REGION":null,"LATITUDE":"32.2918081","ADDRESS2":"","ADDRESS":"Front Street","ZIP_OR_POSTAL":"HM11","EVENT_IMAGE":"","EVENT_END_DATE":null,"EVENT_FEATURES":null,"EVENT_TIMES":"","LONGITUDE":"-64.7864681","EVENT_START_DATE":null,"STATE_OR_PROVINCE":""},"256529":{"DISTANCE":"5277.98264558898","DOOR_ID":256529,"STORE_TYPE":"","CITY":"Buenos Aires","SERVICES":null,"COUNTRY":"Argentina","STORE_HOURS":null,"EVENT_NAME":"","DOORNAME":"Falabella Unicenter","PHONE1":"0054 11 4717-8100 int 3170","REGION":null,"LATITUDE":"-34.5087642","ADDRESS2":"","ADDRESS":"Avenida Paraná 3745; Martínez","ZIP_OR_POSTAL":"","EVENT_IMAGE":"","EVENT_END_DATE":null,"EVENT_FEATURES":null,"EVENT_TIMES":"","LONGITUDE":"-58.5217643","EVENT_START_DATE":null,"STATE_OR_PROVINCE":""},"2050018":{"DISTANCE":"5761.05555332478","DOOR_ID":2050018,"STORE_TYPE":"","CITY":"Moscow","SERVICES":null,"COUNTRY":"Russia","STORE_HOURS":null,"EVENT_NAME":"","DOORNAME":"Rivoli Crocus","PHONE1":"+7.915.411.79.22","REGION":null,"LATITUDE":"55.6922619","ADDRESS2":"","ADDRESS":"MKAD Ring Road,65-66 km","ZIP_OR_POSTAL":"123592","EVENT_IMAGE":"","EVENT_END_DATE":null,"EVENT_FEATURES":null,"EVENT_TIMES":"","LONGITUDE":"37.4114963","EVENT_START_DATE":null,"STATE_OR_PROVINCE":"Moscow region"},"441340":{"DISTANCE":"1460.98063084552","DOOR_ID":441340,"STORE_TYPE":"","CITY":"San Francisco","SERVICES":null,"COUNTRY":"UNITED STATES","STORE_HOURS":null,"EVENT_NAME":"","DOORNAME":"Sephora Union St","PHONE1":"","REGION":null,"LATITUDE":"37.7971917","ADDRESS2":"","ADDRESS":"2083 Union St.","ZIP_OR_POSTAL":"94123","EVENT_IMAGE":"","EVENT_END_DATE":null,"EVENT_FEATURES":null,"EVENT_TIMES":"","LONGITUDE":"-122.4334388","EVENT_START_DATE":null,"STATE_OR_PROVINCE":"CA"},"5936115":{"DISTANCE":"1195.41929689351","DOOR_ID":5936115,"STORE_TYPE":"","CITY":"St Catharines","SERVICES":null,"COUNTRY":"","STORE_HOURS":null,"EVENT_NAME":"","DOORNAME":"Sephora Canada-Pen Centre","PHONE1":"","REGION":null,"LATITUDE":"43.1360847","ADDRESS2":"","ADDRESS":"221 Glendale Ave","ZIP_OR_POSTAL":"","EVENT_IMAGE":"","EVENT_END_DATE":null,"EVENT_FEATURES":null,"EVENT_TIMES":"","LONGITUDE":"-79.2240958","EVENT_START_DATE":null,"STATE_OR_PROVINCE":"ON"},"256407":{"DISTANCE":"807.265974450927","DOOR_ID":256407,"STORE_TYPE":"","CITY":"Skokie","SERVICES":null,"COUNTRY":"UNITED STATES","STORE_HOURS":null,"EVENT_NAME":"","DOORNAME":"Nordstrom","PHONE1":"847.677.2121","REGION":null,"LATITUDE":"42.0617281","ADDRESS2":"","ADDRESS":"77 Old Orchard Road","ZIP_OR_POSTAL":"60077","EVENT_IMAGE":"","EVENT_END_DATE":null,"EVENT_FEATURES":null,"EVENT_TIMES":"","LONGITUDE":"-87.754883","EVENT_START_DATE":null,"STATE_OR_PROVINCE":"IL"},"2050094":{"DISTANCE":"4937.23081739635","DOOR_ID":2050094,"STORE_TYPE":"","CITY":"Utrecht","SERVICES":null,"COUNTRY":"Netherlands","STORE_HOURS":null,"EVENT_NAME":"","DOORNAME":"Douglas Utrecht","PHONE1":"0031 30 231 24 67","REGION":null,"LATITUDE":"52.0921076","ADDRESS2":"","ADDRESS":"Vredenburg 3","ZIP_OR_POSTAL":"3511BA","EVENT_IMAGE":"","EVENT_END_DATE":null,"EVENT_FEATURES":null,"EVENT_TIMES":"","LONGITUDE":"5.1152473","EVENT_START_DATE":null,"STATE_OR_PROVINCE":""},"6537118":{"DISTANCE":"5263.66933278689","DOOR_ID":6537118,"STORE_TYPE":"","CITY":"Blaine","SERVICES":null,"COUNTRY":"USA","STORE_HOURS":null,"EVENT_NAME":"","DOORNAME":"Mara Liska","PHONE1":"(000) 000-0000 x0000","REGION":null,"LATITUDE":"-34.4457556","ADDRESS2":"2nd Floor","ADDRESS":"4000 Pheasant Ridge Drive","ZIP_OR_POSTAL":"55449","EVENT_IMAGE":"","EVENT_END_DATE":null,"EVENT_FEATURES":null,"EVENT_TIMES":"","LONGITUDE":"-58.868632","EVENT_START_DATE":null,"STATE_OR_PROVINCE":"MN"},"256490":{"DISTANCE":"1649.12576387725","DOOR_ID":256490,"STORE_TYPE":"","CITY":"Tacoma","SERVICES":null,"COUNTRY":"UNITED STATES","STORE_HOURS":null,"EVENT_NAME":"","DOORNAME":"Nordstrom","PHONE1":"253.475.3630 ext. 1086 ","REGION":null,"LATITUDE":"47.2149084","ADDRESS2":"","ADDRESS":"4502 South Steele  #800","ZIP_OR_POSTAL":"98409","EVENT_IMAGE":"","EVENT_END_DATE":null,"EVENT_FEATURES":null,"EVENT_TIMES":"","LONGITUDE":"-122.4675393","EVENT_START_DATE":null,"STATE_OR_PROVINCE":"WA"},"5936202":{"DISTANCE":"1627.99249670693","DOOR_ID":5936202,"STORE_TYPE":"","CITY":"Edmonton","SERVICES":null,"COUNTRY":"","STORE_HOURS":null,"EVENT_NAME":"","DOORNAME":"Sephora Canada-South","PHONE1":"","REGION":null,"LATITUDE":"53.4851099","ADDRESS2":"","ADDRESS":"5015 - 111 St Nw, Unit #29","ZIP_OR_POSTAL":"","EVENT_IMAGE":"","EVENT_END_DATE":null,"EVENT_FEATURES":null,"EVENT_TIMES":"","LONGITUDE":"-113.513582","EVENT_START_DATE":null,"STATE_OR_PROVINCE":"AB"},"257137":{"DISTANCE":"6799.36945526378","DOOR_ID":257137,"STORE_TYPE":"","CITY":"Sungnam-Si","SERVICES":null,"COUNTRY":"Korea","STORE_HOURS":null,"EVENT_NAME":"","DOORNAME":"AK PLAZA Bundang","PHONE1":"82-31-781-5871","REGION":null,"LATITUDE":"37.4138","ADDRESS2":"Bundang-Ku","ADDRESS":"263 Seohyun-Dong","ZIP_OR_POSTAL":"","EVENT_IMAGE":"","EVENT_END_DATE":null,"EVENT_FEATURES":null,"EVENT_TIMES":"","LONGITUDE":"127.5183","EVENT_START_DATE":null,"STATE_OR_PROVINCE":"Kyungki-Do"},"256936":{"DISTANCE":"1431.27680342885","DOOR_ID":256936,"STORE_TYPE":"","CITY":"Santa Clara","SERVICES":null,"COUNTRY":"UNITED STATES","STORE_HOURS":null,"EVENT_NAME":"","DOORNAME":"Macy's - Valley Fair","PHONE1":"408-248-3333","REGION":null,"LATITUDE":"37.3234466","ADDRESS2":"","ADDRESS":"2801 Stevens Creek Boulevard","ZIP_OR_POSTAL":"95050","EVENT_IMAGE":"","EVENT_END_DATE":null,"EVENT_FEATURES":null,"EVENT_TIMES":"12pm-1 pm/ 11am - 5pm","LONGITUDE":"-121.9417327","EVENT_START_DATE":null,"STATE_OR_PROVINCE":"CA"},"2050137":{"DISTANCE":"6938.33850671381","DOOR_ID":2050137,"STORE_TYPE":"","CITY":"Haifa","SERVICES":null,"COUNTRY":"Israel","STORE_HOURS":null,"EVENT_NAME":"","DOORNAME":"Grand","PHONE1":"+972-4-6442075","REGION":null,"LATITUDE":"32.7940463","ADDRESS2":"","ADDRESS":"54 Simha Golan st","ZIP_OR_POSTAL":"","EVENT_IMAGE":"","EVENT_END_DATE":null,"EVENT_FEATURES":null,"EVENT_TIMES":"","LONGITUDE":"34.989571","EVENT_START_DATE":null,"STATE_OR_PROVINCE":""},"256877":{"DISTANCE":"1209.65451931585","DOOR_ID":256877,"STORE_TYPE":"","CITY":"Montebello","SERVICES":null,"COUNTRY":"UNITED STATES","STORE_HOURS":null,"EVENT_NAME":"","DOORNAME":"Macy's Montebello Town Center","PHONE1":"323-201-2111‎","REGION":null,"LATITUDE":"34.0347012","ADDRESS2":"","ADDRESS":"2000 Montebello Town Center","ZIP_OR_POSTAL":"90640","EVENT_IMAGE":"","EVENT_END_DATE":null,"EVENT_FEATURES":null,"EVENT_TIMES":"","LONGITUDE":"-118.0837716","EVENT_START_DATE":null,"STATE_OR_PROVINCE":"CA"},"256511":{"DISTANCE":"1406.49349172574","DOOR_ID":256511,"STORE_TYPE":"","CITY":"Roseville","SERVICES":null,"COUNTRY":"UNITED STATES","STORE_HOURS":null,"EVENT_NAME":"","DOORNAME":"Nordstrom","PHONE1":"916.780.7300","REGION":null,"LATITUDE":"38.771613","ADDRESS2":"","ADDRESS":"1131 Galleria Boulevard","ZIP_OR_POSTAL":"95678","EVENT_IMAGE":"","EVENT_END_DATE":null,"EVENT_FEATURES":null,"EVENT_TIMES":"","LONGITUDE":"-121.268962","EVENT_START_DATE":null,"STATE_OR_PROVINCE":"CA"},"5936184":{"DISTANCE":"1176.16445166726","DOOR_ID":5936184,"STORE_TYPE":"","CITY":"Burlington","SERVICES":null,"COUNTRY":"","STORE_HOURS":null,"EVENT_NAME":"","DOORNAME":"Sephora Canada-Mapleview ","PHONE1":"","REGION":null,"LATITUDE":"43.325899","ADDRESS2":"","ADDRESS":"Mapleview Shopping Center","ZIP_OR_POSTAL":"","EVENT_IMAGE":"","EVENT_END_DATE":null,"EVENT_FEATURES":null,"EVENT_TIMES":"","LONGITUDE":"-79.820315","EVENT_START_DATE":null,"STATE_OR_PROVINCE":"ON"},"257212":{"DISTANCE":"5059.14484520033","DOOR_ID":257212,"STORE_TYPE":"","CITY":"Bonn","SERVICES":null,"COUNTRY":"Germany","STORE_HOURS":null,"EVENT_NAME":"","DOORNAME":"Galeria Kaufhof","PHONE1":"49-228-516-245","REGION":null,"LATITUDE":"50.73437","ADDRESS2":"","ADDRESS":"Remigiusstrasse 20-24","ZIP_OR_POSTAL":"53111","EVENT_IMAGE":"","EVENT_END_DATE":null,"EVENT_FEATURES":null,"EVENT_TIMES":"","LONGITUDE":"7.1005","EVENT_START_DATE":null,"STATE_OR_PROVINCE":""},"257100":{"DISTANCE":"1004.10555105153","DOOR_ID":257100,"STORE_TYPE":"","CITY":"Mt Pleasant","SERVICES":null,"COUNTRY":"UNITED STATES","STORE_HOURS":null,"EVENT_NAME":"","DOORNAME":"Belk","PHONE1":"843.884.2841","REGION":null,"LATITUDE":"32.829016","ADDRESS2":"","ADDRESS":"1200 Belk Drive","ZIP_OR_POSTAL":"29464","EVENT_IMAGE":"","EVENT_END_DATE":null,"EVENT_FEATURES":null,"EVENT_TIMES":"","LONGITUDE":"-79.8299289","EVENT_START_DATE":null,"STATE_OR_PROVINCE":"SC"},"256453":{"DISTANCE":"1462.33537654397","DOOR_ID":256453,"STORE_TYPE":"","CITY":"Farmington","SERVICES":null,"COUNTRY":"UNITED STATES","STORE_HOURS":null,"EVENT_NAME":"","DOORNAME":"Nordstrom","PHONE1":"860.521.9090 ext.1415  ","REGION":null,"LATITUDE":"41.722523","ADDRESS2":"","ADDRESS":"600 West Farms Mall","ZIP_OR_POSTAL":"06032","EVENT_IMAGE":"","EVENT_END_DATE":null,"EVENT_FEATURES":null,"EVENT_TIMES":"","LONGITUDE":"-72.7620098","EVENT_START_DATE":null,"STATE_OR_PROVINCE":"CT"},"441365":{"DISTANCE":"1383.57914002559","DOOR_ID":441365,"STORE_TYPE":"","CITY":"New York","SERVICES":null,"COUNTRY":"UNITED STATES","STORE_HOURS":null,"EVENT_NAME":"","DOORNAME":"Sephora 76th & Broadway","PHONE1":"","REGION":null,"LATITUDE":"40.781617","ADDRESS2":"","ADDRESS":"2162 Broadway","ZIP_OR_POSTAL":"10024","EVENT_IMAGE":"","EVENT_END_DATE":null,"EVENT_FEATURES":null,"EVENT_TIMES":"","LONGITUDE":"-73.980516","EVENT_START_DATE":null,"STATE_OR_PROVINCE":"NY"},"5874211":{"DISTANCE":"1206.82403364716","DOOR_ID":5874211,"STORE_TYPE":"","CITY":"Toronto","SERVICES":null,"COUNTRY":"Canada","STORE_HOURS":null,"EVENT_NAME":"","DOORNAME":"Sephora Canada-Eaton ","PHONE1":"","REGION":null,"LATITUDE":"43.6533559","ADDRESS2":"","ADDRESS":"220 Yonge St Space #3-131","ZIP_OR_POSTAL":"","EVENT_IMAGE":"","EVENT_END_DATE":null,"EVENT_FEATURES":null,"EVENT_TIMES":"","LONGITUDE":"-79.3802567","EVENT_START_DATE":null,"STATE_OR_PROVINCE":"ON"},"256381":{"DISTANCE":"6807.39235848397","DOOR_ID":256381,"STORE_TYPE":"","CITY":"Seoul","SERVICES":null,"COUNTRY":"Korea","STORE_HOURS":null,"EVENT_NAME":"","DOORNAME":"Lotte Star City","PHONE1":"82-2-2218-3130","REGION":null,"LATITUDE":"37.5318415","ADDRESS2":"Kwangkin-Ku","ADDRESS":"227-342 Jayang-Dong","ZIP_OR_POSTAL":"","EVENT_IMAGE":"","EVENT_END_DATE":null,"EVENT_FEATURES":null,"EVENT_TIMES":"","LONGITUDE":"127.0703766","EVENT_START_DATE":null,"STATE_OR_PROVINCE":""},"5874175":{"DISTANCE":"1515.57144242641","DOOR_ID":5874175,"STORE_TYPE":"","CITY":"Calgary","SERVICES":null,"COUNTRY":"Canada","STORE_HOURS":null,"EVENT_NAME":"","DOORNAME":"Hudsons Bay-Market Mall","PHONE1":"","REGION":null,"LATITUDE":"51.084709","ADDRESS2":"","ADDRESS":"3625 Shagnanappi Trail N.W.","ZIP_OR_POSTAL":"","EVENT_IMAGE":"","EVENT_END_DATE":null,"EVENT_FEATURES":null,"EVENT_TIMES":"","LONGITUDE":"-114.154918","EVENT_START_DATE":null,"STATE_OR_PROVINCE":"AB"},"257103":{"DISTANCE":"7835.30748837433","DOOR_ID":257103,"STORE_TYPE":"","CITY":"Manama","SERVICES":null,"COUNTRY":"Bahrain","STORE_HOURS":null,"EVENT_NAME":"","DOORNAME":"Bobbi Brown Studio","PHONE1":"973-1717-8323","REGION":null,"LATITUDE":"26.2216125","ADDRESS2":"","ADDRESS":"Ground Floor","ZIP_OR_POSTAL":"5010","EVENT_IMAGE":"","EVENT_END_DATE":null,"EVENT_FEATURES":null,"EVENT_TIMES":"","LONGITUDE":"50.4623348","EVENT_START_DATE":null,"STATE_OR_PROVINCE":""},"2050015":{"DISTANCE":"5762.36150202308","DOOR_ID":2050015,"STORE_TYPE":"","CITY":"Moscow","SERVICES":null,"COUNTRY":"Russia","STORE_HOURS":null,"EVENT_NAME":"","DOORNAME":"Metropolis","PHONE1":"+7.495.660.03.47","REGION":null,"LATITUDE":"55.755826","ADDRESS2":"","ADDRESS":"Leningradskoye highroad, 16A,bld.4","ZIP_OR_POSTAL":"125171","EVENT_IMAGE":"","EVENT_END_DATE":null,"EVENT_FEATURES":null,"EVENT_TIMES":"","LONGITUDE":"37.6173","EVENT_START_DATE":null,"STATE_OR_PROVINCE":""},"5874199":{"DISTANCE":"1655.83089690359","DOOR_ID":5874199,"STORE_TYPE":"","CITY":"","SERVICES":null,"COUNTRY":"Canada","STORE_HOURS":null,"EVENT_NAME":"","DOORNAME":"Sephora Canada - New Sudbury","PHONE1":"","REGION":null,"LATITUDE":"56.130366","ADDRESS2":"","ADDRESS":"","ZIP_OR_POSTAL":"","EVENT_IMAGE":"","EVENT_END_DATE":null,"EVENT_FEATURES":null,"EVENT_TIMES":"","LONGITUDE":"-106.346771","EVENT_START_DATE":null,"STATE_OR_PROVINCE":""},"256385":{"DISTANCE":"1383.86324158426","DOOR_ID":256385,"STORE_TYPE":"","CITY":"New York","SERVICES":null,"COUNTRY":"UNITED STATES","STORE_HOURS":null,"EVENT_NAME":"","DOORNAME":"Bloomingdale's","PHONE1":"212.705.2052","REGION":null,"LATITUDE":"40.7623321","ADDRESS2":"","ADDRESS":"1000 Third Ave","ZIP_OR_POSTAL":"10022","EVENT_IMAGE":"","EVENT_END_DATE":null,"EVENT_FEATURES":null,"EVENT_TIMES":"","LONGITUDE":"-73.9679587","EVENT_START_DATE":null,"STATE_OR_PROVINCE":"NY"},"257073":{"DISTANCE":"7863.66861614449","DOOR_ID":257073,"STORE_TYPE":"","CITY":"Tainan City","SERVICES":null,"COUNTRY":"Taiwan, China","STORE_HOURS":null,"EVENT_NAME":"","DOORNAME":"Mitsukoshi","PHONE1":"886-6-303-1386","REGION":null,"LATITUDE":"22.9948212","ADDRESS2":"","ADDRESS":"No.658, Sec. 1, Simen Rd., West Central District","ZIP_OR_POSTAL":"700","EVENT_IMAGE":"","EVENT_END_DATE":null,"EVENT_FEATURES":null,"EVENT_TIMES":"","LONGITUDE":"120.1964522","EVENT_START_DATE":null,"STATE_OR_PROVINCE":""},"257195":{"DISTANCE":"4939.28229630722","DOOR_ID":257195,"STORE_TYPE":"","CITY":"Paris","SERVICES":null,"COUNTRY":"France","STORE_HOURS":null,"EVENT_NAME":"","DOORNAME":"Séphora","PHONE1":"01.53.92.28.20","REGION":null,"LATITUDE":"48.8577494","ADDRESS2":"","ADDRESS":"50 rue de Passy","ZIP_OR_POSTAL":"75016","EVENT_IMAGE":"","EVENT_END_DATE":null,"EVENT_FEATURES":null,"EVENT_TIMES":"","LONGITUDE":"2.2797875","EVENT_START_DATE":null,"STATE_OR_PROVINCE":""},"257125":{"DISTANCE":"6445.69704502454","DOOR_ID":257125,"STORE_TYPE":"","CITY":"Tokyo","SERVICES":null,"COUNTRY":"Japan","STORE_HOURS":null,"EVENT_NAME":"","DOORNAME":"Mitsukoshi Nihonbashi","PHONE1":"81-3-5204-2006","REGION":null,"LATITUDE":"35.685596","ADDRESS2":"Chuo-ku","ADDRESS":"1-4-1, Nihonbashi-muromachi","ZIP_OR_POSTAL":"103-8001","EVENT_IMAGE":"","EVENT_END_DATE":null,"EVENT_FEATURES":null,"EVENT_TIMES":"","LONGITUDE":"139.7733803","EVENT_START_DATE":null,"STATE_OR_PROVINCE":""},"470301":{"DISTANCE":"7345.77888765509","DOOR_ID":470301,"STORE_TYPE":"","CITY":"Shanghai","SERVICES":null,"COUNTRY":"China Mainland","STORE_HOURS":null,"EVENT_NAME":"","DOORNAME":"ELC Raffles City Shanghai","PHONE1":"021-33661618","REGION":null,"LATITUDE":"31.2360918","ADDRESS2":"","ADDRESS":"Raffles City 268 Middle Xizang Road Shanghai","ZIP_OR_POSTAL":"200001","EVENT_IMAGE":"","EVENT_END_DATE":null,"EVENT_FEATURES":null,"EVENT_TIMES":"","LONGITUDE":"121.47837","EVENT_START_DATE":null,"STATE_OR_PROVINCE":""},"256467":{"DISTANCE":"1117.97156505654","DOOR_ID":256467,"STORE_TYPE":"","CITY":"Boca Raton","SERVICES":null,"COUNTRY":"UNITED STATES","STORE_HOURS":null,"EVENT_NAME":"","DOORNAME":"Saks Fifth Avenue","PHONE1":"561.393.9100 ext. 365  ","REGION":null,"LATITUDE":"26.3682341","ADDRESS2":"","ADDRESS":"5820 Glades Road","ZIP_OR_POSTAL":"33431","EVENT_IMAGE":"","EVENT_END_DATE":null,"EVENT_FEATURES":null,"EVENT_TIMES":"","LONGITUDE":"-80.1338863","EVENT_START_DATE":null,"STATE_OR_PROVINCE":"FL"},"257065":{"DISTANCE":"7701.04190909485","DOOR_ID":257065,"STORE_TYPE":"","CITY":"Ban-Chiao","SERVICES":null,"COUNTRY":"Taiwan, China","STORE_HOURS":null,"EVENT_NAME":"","DOORNAME":"Far Eastern","PHONE1":"886-2-8952-2751","REGION":null,"LATITUDE":"25.0374783","ADDRESS2":"","ADDRESS":"No 152 Chung-Shan Rd.","ZIP_OR_POSTAL":"220","EVENT_IMAGE":"","EVENT_END_DATE":null,"EVENT_FEATURES":null,"EVENT_TIMES":"","LONGITUDE":"121.4994211","EVENT_START_DATE":null,"STATE_OR_PROVINCE":""},"2050033":{"DISTANCE":"5375.05226853409","DOOR_ID":2050033,"STORE_TYPE":"","CITY":"Saint-Petersburg","SERVICES":null,"COUNTRY":"Russia","STORE_HOURS":null,"EVENT_NAME":"","DOORNAME":"Rive Gauche Balkaniya Nova-1","PHONE1":"+7.911.917.72.69","REGION":null,"LATITUDE":"59.8276423","ADDRESS2":"","ADDRESS":"Balkanskaya sq.,5","ZIP_OR_POSTAL":"192281","EVENT_IMAGE":"","EVENT_END_DATE":null,"EVENT_FEATURES":null,"EVENT_TIMES":"","LONGITUDE":"30.3788585","EVENT_START_DATE":null,"STATE_OR_PROVINCE":""},"5936144":{"DISTANCE":"1206.0454922836","DOOR_ID":5936144,"STORE_TYPE":"","CITY":"North York","SERVICES":null,"COUNTRY":"","STORE_HOURS":null,"EVENT_NAME":"","DOORNAME":"Hudsons Bay-Yorkdale","PHONE1":"","REGION":null,"LATITUDE":"43.722333","ADDRESS2":"","ADDRESS":"3401 Dufferin St@Hwy 401","ZIP_OR_POSTAL":"","EVENT_IMAGE":"","EVENT_END_DATE":null,"EVENT_FEATURES":null,"EVENT_TIMES":"","LONGITUDE":"-79.4570062","EVENT_START_DATE":null,"STATE_OR_PROVINCE":"ON"},"257319":{"DISTANCE":"8102.91945344191","DOOR_ID":257319,"STORE_TYPE":"","CITY":"Hong Kong","SERVICES":null,"COUNTRY":"Hong Kong, SAR of China","STORE_HOURS":null,"EVENT_NAME":"","DOORNAME":"Festival Walk","PHONE1":"852-2265-8928","REGION":null,"LATITUDE":"22.33722","ADDRESS2":"Kowloon Tong","ADDRESS":"Shop G-21, 80 Tat Chee Avenue,","ZIP_OR_POSTAL":"","EVENT_IMAGE":"","EVENT_END_DATE":null,"EVENT_FEATURES":null,"EVENT_TIMES":"","LONGITUDE":"114.174587","EVENT_START_DATE":null,"STATE_OR_PROVINCE":""},"257209":{"DISTANCE":"5210.80925206744","DOOR_ID":257209,"STORE_TYPE":"","CITY":"Stuttgart","SERVICES":null,"COUNTRY":"Germany","STORE_HOURS":null,"EVENT_NAME":"","DOORNAME":"Breuninger","PHONE1":"49-711-236-6643","REGION":null,"LATITUDE":"48.7744787","ADDRESS2":"","ADDRESS":"Marktstrasse 1-3","ZIP_OR_POSTAL":"70173","EVENT_IMAGE":"","EVENT_END_DATE":null,"EVENT_FEATURES":null,"EVENT_TIMES":"","LONGITUDE":"9.1806273","EVENT_START_DATE":null,"STATE_OR_PROVINCE":""},"441380":{"DISTANCE":"740.657067782132","DOOR_ID":441380,"STORE_TYPE":"","CITY":"Louisville","SERVICES":null,"COUNTRY":"UNITED STATES","STORE_HOURS":null,"EVENT_NAME":"","DOORNAME":"Sephora Oxmoor","PHONE1":"","REGION":null,"LATITUDE":"38.2470462","ADDRESS2":"7900 Shelbyville Dr, STR D6","ADDRESS":"Oxmoor Center","ZIP_OR_POSTAL":"40222","EVENT_IMAGE":"","EVENT_END_DATE":null,"EVENT_FEATURES":null,"EVENT_TIMES":"","LONGITUDE":"-85.6099166","EVENT_START_DATE":null,"STATE_OR_PROVINCE":"KY"},"256404":{"DISTANCE":"1432.81534223705","DOOR_ID":256404,"STORE_TYPE":"","CITY":"Pleasanton","SERVICES":null,"COUNTRY":"UNITED STATES","STORE_HOURS":null,"EVENT_NAME":"","DOORNAME":"Nordstrom","PHONE1":"925.463.5050 ext. 1416  ","REGION":null,"LATITUDE":"37.698219","ADDRESS2":"","ADDRESS":"1600 Stoneridge Mall Road","ZIP_OR_POSTAL":"94588","EVENT_IMAGE":"","EVENT_END_DATE":null,"EVENT_FEATURES":null,"EVENT_TIMES":"","LONGITUDE":"-121.928651","EVENT_START_DATE":null,"STATE_OR_PROVINCE":"CA"},"257252":{"DISTANCE":"9691.69332791633","DOOR_ID":257252,"STORE_TYPE":"","CITY":"Johor Bahru","SERVICES":null,"COUNTRY":"Malaysia","STORE_HOURS":null,"EVENT_NAME":"","DOORNAME":"Jusco","PHONE1":"60-7-353-1402","REGION":null,"LATITUDE":"1.5616079","ADDRESS2":"Taman Desa Tebrau","ADDRESS":"Ground Floor, No. 1 Jalan Desa Tebrau","ZIP_OR_POSTAL":"81100","EVENT_IMAGE":"","EVENT_END_DATE":null,"EVENT_FEATURES":null,"EVENT_TIMES":"","LONGITUDE":"103.7920492","EVENT_START_DATE":null,"STATE_OR_PROVINCE":""},"1506911":{"DISTANCE":"6968.47031924719","DOOR_ID":1506911,"STORE_TYPE":"airport","CITY":"Tel Aviv","SERVICES":null,"COUNTRY":"Israel","STORE_HOURS":null,"EVENT_NAME":"","DOORNAME":"Tel Aviv Airport","PHONE1":"(972) 39 72 72 72","REGION":null,"LATITUDE":"32.0852999","ADDRESS2":"Departures Shop, concourse B in the middle of the shop floor","ADDRESS":"James Richardson","ZIP_OR_POSTAL":"","EVENT_IMAGE":"","EVENT_END_DATE":null,"EVENT_FEATURES":null,"EVENT_TIMES":"","LONGITUDE":"34.7817676","EVENT_START_DATE":null,"STATE_OR_PROVINCE":""},"257223":{"DISTANCE":"5287.25988015943","DOOR_ID":257223,"STORE_TYPE":"","CITY":"Dresden","SERVICES":null,"COUNTRY":"Germany","STORE_HOURS":null,"EVENT_NAME":"","DOORNAME":"Parfumerie Dommaschk","PHONE1":"49-351-8032860","REGION":null,"LATITUDE":"51.0508375","ADDRESS2":"","ADDRESS":"Neumarkt 9","ZIP_OR_POSTAL":"01067","EVENT_IMAGE":"","EVENT_END_DATE":null,"EVENT_FEATURES":null,"EVENT_TIMES":"","LONGITUDE":"13.740959","EVENT_START_DATE":null,"STATE_OR_PROVINCE":""},"257083":{"DISTANCE":"9011.51923182828","DOOR_ID":257083,"STORE_TYPE":"","CITY":"Bangkok","SERVICES":null,"COUNTRY":"Thailand","STORE_HOURS":null,"EVENT_NAME":"","DOORNAME":"Central World (Zen)","PHONE1":"662-613-1045","REGION":null,"LATITUDE":"13.7371881","ADDRESS2":"Pathumwan","ADDRESS":"4, 4/5 Rajdamri Road","ZIP_OR_POSTAL":"10330","EVENT_IMAGE":"","EVENT_END_DATE":null,"EVENT_FEATURES":null,"EVENT_TIMES":"","LONGITUDE":"100.5380494","EVENT_START_DATE":null,"STATE_OR_PROVINCE":""},"257194":{"DISTANCE":"4939.83314202261","DOOR_ID":257194,"STORE_TYPE":"","CITY":"Paris","SERVICES":null,"COUNTRY":"France","STORE_HOURS":null,"EVENT_NAME":"","DOORNAME":"Séphora","PHONE1":"01.53.93.22.54","REGION":null,"LATITUDE":"48.8708333","ADDRESS2":"","ADDRESS":"70 avenue des Champs Elysées","ZIP_OR_POSTAL":"75008","EVENT_IMAGE":"","EVENT_END_DATE":null,"EVENT_FEATURES":null,"EVENT_TIMES":"","LONGITUDE":"2.3047294","EVENT_START_DATE":null,"STATE_OR_PROVINCE":""},"256867":{"DISTANCE":"829.590494310149","DOOR_ID":256867,"STORE_TYPE":"","CITY":"Cincinnati","SERVICES":null,"COUNTRY":"UNITED STATES","STORE_HOURS":null,"EVENT_NAME":"","DOORNAME":"Macy's","PHONE1":"513-745-5380","REGION":null,"LATITUDE":"39.200932","ADDRESS2":"","ADDRESS":"7875 Montgomery Road","ZIP_OR_POSTAL":"45236","EVENT_IMAGE":"","EVENT_END_DATE":null,"EVENT_FEATURES":null,"EVENT_TIMES":"","LONGITUDE":"-84.376009","EVENT_START_DATE":null,"STATE_OR_PROVINCE":"OH"},"441333":{"DISTANCE":"1227.87228069273","DOOR_ID":441333,"STORE_TYPE":"","CITY":"Manhattan","SERVICES":null,"COUNTRY":"UNITED STATES","STORE_HOURS":null,"EVENT_NAME":"","DOORNAME":"Sephora Manhattan Beach","PHONE1":"","REGION":null,"LATITUDE":"33.8990861","ADDRESS2":"","ADDRESS":"3200 Sepulveda Blvd","ZIP_OR_POSTAL":"90266","EVENT_IMAGE":"","EVENT_END_DATE":null,"EVENT_FEATURES":null,"EVENT_TIMES":"","LONGITUDE":"-118.393296","EVENT_START_DATE":null,"STATE_OR_PROVINCE":"CA"},"256411":{"DISTANCE":"1191.78359300964","DOOR_ID":256411,"STORE_TYPE":"","CITY":"Arlington","SERVICES":null,"COUNTRY":"UNITED STATES","STORE_HOURS":null,"EVENT_NAME":"","DOORNAME":"Nordstrom","PHONE1":"703.415.1121 ext. 1421  ","REGION":null,"LATITUDE":"38.8615511","ADDRESS2":"","ADDRESS":"1400 South Hayes Street","ZIP_OR_POSTAL":"22202","EVENT_IMAGE":"","EVENT_END_DATE":null,"EVENT_FEATURES":null,"EVENT_TIMES":"","LONGITUDE":"-77.0599312","EVENT_START_DATE":null,"STATE_OR_PROVINCE":"VA"},"1873036":{"DISTANCE":"763.680984545157","DOOR_ID":1873036,"STORE_TYPE":"","CITY":"Greenwood","SERVICES":null,"COUNTRY":"UNITED STATES","STORE_HOURS":null,"EVENT_NAME":"","DOORNAME":"VON MAUR GREENWOOD PARK","PHONE1":"(317) 885-9936","REGION":null,"LATITUDE":"39.6326233","ADDRESS2":"","ADDRESS":"1251 US 31 North","ZIP_OR_POSTAL":"46142-4503","EVENT_IMAGE":"","EVENT_END_DATE":null,"EVENT_FEATURES":null,"EVENT_TIMES":"","LONGITUDE":"-86.1205805","EVENT_START_DATE":null,"STATE_OR_PROVINCE":"IN"},"257181":{"DISTANCE":"5303.8249782028","DOOR_ID":257181,"STORE_TYPE":"","CITY":"Trans en Provence","SERVICES":null,"COUNTRY":"France","STORE_HOURS":null,"EVENT_NAME":"","DOORNAME":"Truphème","PHONE1":"04.94.84.52.69","REGION":null,"LATITUDE":"43.504093","ADDRESS2":"","ADDRESS":"Centre Cial Carrefour Quartier du Plan","ZIP_OR_POSTAL":"83720","EVENT_IMAGE":"","EVENT_END_DATE":null,"EVENT_FEATURES":null,"EVENT_TIMES":"","LONGITUDE":"6.495985","EVENT_START_DATE":null,"STATE_OR_PROVINCE":""},"256384":{"DISTANCE":"862.770107766356","DOOR_ID":256384,"STORE_TYPE":"","CITY":"Phoenix","SERVICES":null,"COUNTRY":"UNITED STATES","STORE_HOURS":null,"EVENT_NAME":"","DOORNAME":"Saks Fifth Avenue","PHONE1":"602.955.8000","REGION":null,"LATITUDE":"33.5094671","ADDRESS2":"","ADDRESS":"2446 East Camelback Road","ZIP_OR_POSTAL":"85016","EVENT_IMAGE":"","EVENT_END_DATE":null,"EVENT_FEATURES":null,"EVENT_TIMES":"","LONGITUDE":"-112.0289715","EVENT_START_DATE":null,"STATE_OR_PROVINCE":"AZ"},"256948":{"DISTANCE":"779.814669953082","DOOR_ID":256948,"STORE_TYPE":"","CITY":"Bolingbrook","SERVICES":null,"COUNTRY":"UNITED STATES","STORE_HOURS":null,"EVENT_NAME":"","DOORNAME":"Macy's","PHONE1":"630-343-4200","REGION":null,"LATITUDE":"41.720303","ADDRESS2":"","ADDRESS":"645 East Boughton Road","ZIP_OR_POSTAL":"60440","EVENT_IMAGE":"","EVENT_END_DATE":null,"EVENT_FEATURES":null,"EVENT_TIMES":"","LONGITUDE":"-88.0443372","EVENT_START_DATE":null,"STATE_OR_PROVINCE":"IL"},"257105":{"DISTANCE":"1341.78269516453","DOOR_ID":257105,"STORE_TYPE":"","CITY":"Freehold","SERVICES":null,"COUNTRY":"UNITED STATES","STORE_HOURS":null,"EVENT_NAME":"","DOORNAME":"Lord & Taylor","PHONE1":"732-308-1400","REGION":null,"LATITUDE":"40.2246907","ADDRESS2":"","ADDRESS":"US RTE 9/N.J. RTE 33","ZIP_OR_POSTAL":"07728","EVENT_IMAGE":"","EVENT_END_DATE":null,"EVENT_FEATURES":null,"EVENT_TIMES":"","LONGITUDE":"-74.60687","EVENT_START_DATE":null,"STATE_OR_PROVINCE":"NJ"},"256390":{"DISTANCE":"1228.84604155725","DOOR_ID":256390,"STORE_TYPE":"","CITY":"Century City","SERVICES":null,"COUNTRY":"UNITED STATES","STORE_HOURS":null,"EVENT_NAME":"","DOORNAME":"Bloomingdale's","PHONE1":"310.772.2100 ","REGION":null,"LATITUDE":"34.0599759","ADDRESS2":"","ADDRESS":"10250 Santa Monica Blvd.","ZIP_OR_POSTAL":"90067","EVENT_IMAGE":"","EVENT_END_DATE":null,"EVENT_FEATURES":null,"EVENT_TIMES":"","LONGITUDE":"-118.4200001","EVENT_START_DATE":null,"STATE_OR_PROVINCE":"CA"},"257330":{"DISTANCE":"6673.47341125276","DOOR_ID":257330,"STORE_TYPE":"","CITY":"Hyogo","SERVICES":null,"COUNTRY":"Japan","STORE_HOURS":null,"EVENT_NAME":"","DOORNAME":"Daimaru Kobe","PHONE1":"81-78-327-5665","REGION":null,"LATITUDE":"34.6875777","ADDRESS2":"Kobe-Shi","ADDRESS":"40, Akashi-machi, Chuo-ku","ZIP_OR_POSTAL":"650-0037","EVENT_IMAGE":"","EVENT_END_DATE":null,"EVENT_FEATURES":null,"EVENT_TIMES":"","LONGITUDE":"135.1911478","EVENT_START_DATE":null,"STATE_OR_PROVINCE":""},"257391":{"DISTANCE":"4753.59065855951","DOOR_ID":257391,"STORE_TYPE":"","CITY":"Las Palmas de Gran Canaria","SERVICES":null,"COUNTRY":"Spain","STORE_HOURS":null,"EVENT_NAME":"","DOORNAME":"El Corte Ingles","PHONE1":"928222100","REGION":null,"LATITUDE":"28.1347739","ADDRESS2":"","ADDRESS":"Avda. Mesa y Lopez, 18","ZIP_OR_POSTAL":"35005","EVENT_IMAGE":"","EVENT_END_DATE":null,"EVENT_FEATURES":null,"EVENT_TIMES":"","LONGITUDE":"-15.4321394","EVENT_START_DATE":null,"STATE_OR_PROVINCE":"las Palmas de Gran Canarias"},"393670":{"DISTANCE":"1052.62909750773","DOOR_ID":393670,"STORE_TYPE":"downtown","CITY":"Playa del Carmen","SERVICES":null,"COUNTRY":"Mexico","STORE_HOURS":null,"EVENT_NAME":"","DOORNAME":"Playa del Carmen - Liverpool Shopping Mall","PHONE1":"(52) 984- 206-3140","REGION":null,"LATITUDE":"20.6382204","ADDRESS2":"\r\nCentro Municipio Solidaridad","ADDRESS":"5ta. Ave. No. 248\r\nEsquina Privada Calle 14 Norte","ZIP_OR_POSTAL":"77710","EVENT_IMAGE":"","EVENT_END_DATE":null,"EVENT_FEATURES":null,"EVENT_TIMES":"","LONGITUDE":"-87.0936364","EVENT_START_DATE":null,"STATE_OR_PROVINCE":"Quintana Roo"},"352198":{"DISTANCE":"998.93960509726","DOOR_ID":352198,"STORE_TYPE":"","CITY":"Charleston","SERVICES":null,"COUNTRY":"UNITED STATES","STORE_HOURS":null,"EVENT_NAME":"","DOORNAME":"CHARLESTON","PHONE1":"","REGION":null,"LATITUDE":"32.7791432","ADDRESS2":"201 King Street","ADDRESS":"Cos Bar","ZIP_OR_POSTAL":"29401","EVENT_IMAGE":"","EVENT_END_DATE":null,"EVENT_FEATURES":null,"EVENT_TIMES":"","LONGITUDE":"-79.9248669","EVENT_START_DATE":null,"STATE_OR_PROVINCE":"SC"},"256862":{"DISTANCE":"8228.05231972243","DOOR_ID":256862,"STORE_TYPE":"","CITY":"Beijing","SERVICES":null,"COUNTRY":"China Mainland","STORE_HOURS":null,"EVENT_NAME":"","DOORNAME":"Cui Wei","PHONE1":"+86 10 6821 9038","REGION":null,"LATITUDE":"25.072221","ADDRESS2":"","ADDRESS":"33, Fu Xing Road","ZIP_OR_POSTAL":"","EVENT_IMAGE":"","EVENT_END_DATE":null,"EVENT_FEATURES":null,"EVENT_TIMES":"","LONGITUDE":"102.7269145","EVENT_START_DATE":null,"STATE_OR_PROVINCE":""},"470309":{"DISTANCE":"9656.57097037646","DOOR_ID":470309,"STORE_TYPE":"","CITY":"Kuala Lumpur City Centre","SERVICES":null,"COUNTRY":"Malaysia","STORE_HOURS":null,"EVENT_NAME":"","DOORNAME":"FSS Suria KLCC Kuala Lumpur","PHONE1":"603-2161 1620","REGION":null,"LATITUDE":"3.157783","ADDRESS2":"","ADDRESS":"Lot C30 & C31, Concourse Floor Suria KLCC","ZIP_OR_POSTAL":"50088","EVENT_IMAGE":"","EVENT_END_DATE":null,"EVENT_FEATURES":null,"EVENT_TIMES":"","LONGITUDE":"101.712442","EVENT_START_DATE":null,"STATE_OR_PROVINCE":""},"441334":{"DISTANCE":"1382.27175788328","DOOR_ID":441334,"STORE_TYPE":"","CITY":"New York","SERVICES":null,"COUNTRY":"UNITED STATES","STORE_HOURS":null,"EVENT_NAME":"","DOORNAME":"Sephora Flatiron","PHONE1":"","REGION":null,"LATITUDE":"40.7391404","ADDRESS2":"","ADDRESS":"119 5th Avenue","ZIP_OR_POSTAL":"10003","EVENT_IMAGE":"","EVENT_END_DATE":null,"EVENT_FEATURES":null,"EVENT_TIMES":"","LONGITUDE":"-73.9910769","EVENT_START_DATE":null,"STATE_OR_PROVINCE":"NY"},"256329":{"DISTANCE":"539.768260923832","DOOR_ID":256329,"STORE_TYPE":"","CITY":"St. Louis","SERVICES":null,"COUNTRY":"UNITED STATES","STORE_HOURS":null,"EVENT_NAME":"","DOORNAME":"Saks Fifth Avenue","PHONE1":"314.567.9200 ext 361","REGION":null,"LATITUDE":"38.628495","ADDRESS2":"","ADDRESS":"1 Plaza  Frontenac","ZIP_OR_POSTAL":"63131","EVENT_IMAGE":"","EVENT_END_DATE":null,"EVENT_FEATURES":null,"EVENT_TIMES":"","LONGITUDE":"-90.406983","EVENT_START_DATE":null,"STATE_OR_PROVINCE":"MO"},"256965":{"DISTANCE":"737.650003035506","DOOR_ID":256965,"STORE_TYPE":"","CITY":"Atlanta","SERVICES":null,"COUNTRY":"UNITED STATES","STORE_HOURS":null,"EVENT_NAME":"","DOORNAME":"Woo Cosmetics & Skincare","PHONE1":"404.477.5000","REGION":null,"LATITUDE":"33.8199995","ADDRESS2":"","ADDRESS":"2339-A Peachtree Rd","ZIP_OR_POSTAL":"30305","EVENT_IMAGE":"","EVENT_END_DATE":null,"EVENT_FEATURES":null,"EVENT_TIMES":"","LONGITUDE":"-84.3883796","EVENT_START_DATE":null,"STATE_OR_PROVINCE":"GA"},"256778":{"DISTANCE":"4884.45906327015","DOOR_ID":256778,"STORE_TYPE":"","CITY":"Santiago","SERVICES":null,"COUNTRY":"Chile","STORE_HOURS":null,"EVENT_NAME":"","DOORNAME":"Paris","PHONE1":"56-2-3364317 (direct)","REGION":null,"LATITUDE":"-33.388828","ADDRESS2":"","ADDRESS":"Av. Presidente Kennedy 9001, Las Condes","ZIP_OR_POSTAL":"","EVENT_IMAGE":"","EVENT_END_DATE":null,"EVENT_FEATURES":null,"EVENT_TIMES":"","LONGITUDE":"-70.5452697","EVENT_START_DATE":null,"STATE_OR_PROVINCE":""},"2050025":{"DISTANCE":"5369.3055984718","DOOR_ID":2050025,"STORE_TYPE":"","CITY":"Saint-Petersburg","SERVICES":null,"COUNTRY":"Russia","STORE_HOURS":null,"EVENT_NAME":"","DOORNAME":"Stockmann","PHONE1":"+7.911.816.13.93","REGION":null,"LATITUDE":"59.931594","ADDRESS2":"","ADDRESS":"Nevskiy av., 114-116 ","ZIP_OR_POSTAL":"191025","EVENT_IMAGE":"","EVENT_END_DATE":null,"EVENT_FEATURES":null,"EVENT_TIMES":"","LONGITUDE":"30.358823","EVENT_START_DATE":null,"STATE_OR_PROVINCE":""},"256496":{"DISTANCE":"1187.20206773312","DOOR_ID":256496,"STORE_TYPE":"","CITY":"Montclair","SERVICES":null,"COUNTRY":"UNITED STATES","STORE_HOURS":null,"EVENT_NAME":"","DOORNAME":"Nordstrom","PHONE1":"909.625.0821 ext. 1086 ","REGION":null,"LATITUDE":"34.085761","ADDRESS2":"","ADDRESS":"5015 Montclair Plaza Lane","ZIP_OR_POSTAL":"91763","EVENT_IMAGE":"","EVENT_END_DATE":null,"EVENT_FEATURES":null,"EVENT_TIMES":"","LONGITUDE":"-117.694601","EVENT_START_DATE":null,"STATE_OR_PROVINCE":"CA"},"393664":{"DISTANCE":"6448.73333181547","DOOR_ID":393664,"STORE_TYPE":"airport","CITY":"Tokyo","SERVICES":null,"COUNTRY":"Japan","STORE_HOURS":null,"EVENT_NAME":"","DOORNAME":"Haneda","PHONE1":"","REGION":null,"LATITUDE":"35.6894875","ADDRESS2":"","ADDRESS":"Tokyo Haneda International Airport 4-3 Haneda-Kuko, 2-Chome, Ota-Ku, Tokyo 144, Japan","ZIP_OR_POSTAL":"","EVENT_IMAGE":"","EVENT_END_DATE":null,"EVENT_FEATURES":null,"EVENT_TIMES":"","LONGITUDE":"139.6917064","EVENT_START_DATE":null,"STATE_OR_PROVINCE":""},"257081":{"DISTANCE":"9005.09179061085","DOOR_ID":257081,"STORE_TYPE":"","CITY":"Bangkok","SERVICES":null,"COUNTRY":"Thailand","STORE_HOURS":null,"EVENT_NAME":"","DOORNAME":"Central Ladprao","PHONE1":"662-937-1351","REGION":null,"LATITUDE":"13.8287955","ADDRESS2":"Chatuchak","ADDRESS":"1691 Phaholyothin Road Chatuchak","ZIP_OR_POSTAL":"10900","EVENT_IMAGE":"","EVENT_END_DATE":null,"EVENT_FEATURES":null,"EVENT_TIMES":"","LONGITUDE":"100.5598801","EVENT_START_DATE":null,"STATE_OR_PROVINCE":""},"5936187":{"DISTANCE":"1737.60789056932","DOOR_ID":5936187,"STORE_TYPE":"","CITY":"Burnaby","SERVICES":null,"COUNTRY":"","STORE_HOURS":null,"EVENT_NAME":"","DOORNAME":"Sephora Canada-Metr","PHONE1":"","REGION":null,"LATITUDE":"49.225512","ADDRESS2":"","ADDRESS":"216-4820 Kingsway","ZIP_OR_POSTAL":"","EVENT_IMAGE":"","EVENT_END_DATE":null,"EVENT_FEATURES":null,"EVENT_TIMES":"","LONGITUDE":"-122.997561","EVENT_START_DATE":null,"STATE_OR_PROVINCE":"BC"},"256973":{"DISTANCE":"1192.00244319568","DOOR_ID":256973,"STORE_TYPE":"","CITY":"Chevy Chase","SERVICES":null,"COUNTRY":"UNITED STATES","STORE_HOURS":null,"EVENT_NAME":"","DOORNAME":"Bloomingdale's","PHONE1":"240.744.3771","REGION":null,"LATITUDE":"38.9601442","ADDRESS2":"","ADDRESS":"5300 Western Avenue","ZIP_OR_POSTAL":"20815","EVENT_IMAGE":"","EVENT_END_DATE":null,"EVENT_FEATURES":null,"EVENT_TIMES":"","LONGITUDE":"-77.086586","EVENT_START_DATE":null,"STATE_OR_PROVINCE":"MD"},"6532099":{"DISTANCE":"5277.93011247358","DOOR_ID":6532099,"STORE_TYPE":"","CITY":"Long Beach","SERVICES":null,"COUNTRY":"USA","STORE_HOURS":null,"EVENT_NAME":"","DOORNAME":"Joseph Christopher Salon & Spa","PHONE1":"(516) 889-3900 x0000","REGION":null,"LATITUDE":"-34.5086277","ADDRESS2":"","ADDRESS":"254 W. Park Ave.","ZIP_OR_POSTAL":"11561","EVENT_IMAGE":"","EVENT_END_DATE":null,"EVENT_FEATURES":null,"EVENT_TIMES":"","LONGITUDE":"-58.5232127","EVENT_START_DATE":null,"STATE_OR_PROVINCE":"NY"},"256368":{"DISTANCE":"1004.94693911701","DOOR_ID":256368,"STORE_TYPE":"","CITY":"Troy","SERVICES":null,"COUNTRY":"UNITED STATES","STORE_HOURS":null,"EVENT_NAME":"","DOORNAME":"Saks Fifth Avenue","PHONE1":"248.643.9000","REGION":null,"LATITUDE":"42.560164","ADDRESS2":"","ADDRESS":"2901 West Big Beaver Road","ZIP_OR_POSTAL":"48084","EVENT_IMAGE":"","EVENT_END_DATE":null,"EVENT_FEATURES":null,"EVENT_TIMES":"","LONGITUDE":"-83.185604","EVENT_START_DATE":null,"STATE_OR_PROVINCE":"MI"},"2050024":{"DISTANCE":"5368.130116155","DOOR_ID":2050024,"STORE_TYPE":"","CITY":"Saint-Petersburg","SERVICES":null,"COUNTRY":"Russia","STORE_HOURS":null,"EVENT_NAME":"","DOORNAME":"DLT","PHONE1":"+7.981.828.74.69","REGION":null,"LATITUDE":"59.9379289","ADDRESS2":"","ADDRESS":"Bolshaya Konyushennaya str.,21-23","ZIP_OR_POSTAL":"191186","EVENT_IMAGE":"","EVENT_END_DATE":null,"EVENT_FEATURES":null,"EVENT_TIMES":"","LONGITUDE":"30.3227126","EVENT_START_DATE":null,"STATE_OR_PROVINCE":""},"6537116":{"DISTANCE":"5277.93011247358","DOOR_ID":6537116,"STORE_TYPE":"","CITY":"Long Beach","SERVICES":null,"COUNTRY":"USA","STORE_HOURS":null,"EVENT_NAME":"","DOORNAME":"Joseph Christopher Salon & Spa","PHONE1":"(516) 889-3900 x0000","REGION":null,"LATITUDE":"-34.5086277","ADDRESS2":"","ADDRESS":"254 W. Park Ave.","ZIP_OR_POSTAL":"11561","EVENT_IMAGE":"","EVENT_END_DATE":null,"EVENT_FEATURES":null,"EVENT_TIMES":"","LONGITUDE":"-58.5232127","EVENT_START_DATE":null,"STATE_OR_PROVINCE":"NY"},"257321":{"DISTANCE":"8106.2458957478","DOOR_ID":257321,"STORE_TYPE":"","CITY":"Hong Kong","SERVICES":null,"COUNTRY":"Hong Kong, SAR of China","STORE_HOURS":null,"EVENT_NAME":"","DOORNAME":"Lane Crawford Times Square","PHONE1":"852-2115-9691","REGION":null,"LATITUDE":"22.278114","ADDRESS2":"Causeway Bay","ADDRESS":"1 Matheson Street","ZIP_OR_POSTAL":"","EVENT_IMAGE":"","EVENT_END_DATE":null,"EVENT_FEATURES":null,"EVENT_TIMES":"","LONGITUDE":"114.181701","EVENT_START_DATE":null,"STATE_OR_PROVINCE":""},"256940":{"DISTANCE":"1308.17106591879","DOOR_ID":256940,"STORE_TYPE":"","CITY":"Philadelphia","SERVICES":null,"COUNTRY":"UNITED STATES","STORE_HOURS":null,"EVENT_NAME":"","DOORNAME":"bluemercury","PHONE1":"215.569.3100","REGION":null,"LATITUDE":"39.950239","ADDRESS2":"","ADDRESS":"1707 Walnut Street","ZIP_OR_POSTAL":"19103","EVENT_IMAGE":"","EVENT_END_DATE":null,"EVENT_FEATURES":null,"EVENT_TIMES":"","LONGITUDE":"-75.169411","EVENT_START_DATE":null,"STATE_OR_PROVINCE":"PA"},"256534":{"DISTANCE":"803.520330293518","DOOR_ID":256534,"STORE_TYPE":"","CITY":"Chicago","SERVICES":null,"COUNTRY":"UNITED STATES","STORE_HOURS":null,"EVENT_NAME":"","DOORNAME":"Neiman Marcus","PHONE1":"312.642.5900 x2104","REGION":null,"LATITUDE":"41.8963645","ADDRESS2":"","ADDRESS":"737 North Michigan Avenue","ZIP_OR_POSTAL":"60611","EVENT_IMAGE":"","EVENT_END_DATE":null,"EVENT_FEATURES":null,"EVENT_TIMES":"","LONGITUDE":"-87.6237704","EVENT_START_DATE":null,"STATE_OR_PROVINCE":"IL"},"256731":{"DISTANCE":"7696.32919603055","DOOR_ID":256731,"STORE_TYPE":"","CITY":"Taipei City","SERVICES":null,"COUNTRY":"Taiwan, China","STORE_HOURS":null,"EVENT_NAME":"","DOORNAME":"Sogo Tien Mu","PHONE1":"886-2-2835-8687","REGION":null,"LATITUDE":"25.1046869","ADDRESS2":"Shihlin Dist.","ADDRESS":"1F., No.77, Sec. 6, Jhongshan N. Rd.,","ZIP_OR_POSTAL":"","EVENT_IMAGE":"","EVENT_END_DATE":null,"EVENT_FEATURES":null,"EVENT_TIMES":"","LONGITUDE":"121.5245228","EVENT_START_DATE":null,"STATE_OR_PROVINCE":""},"256879":{"DISTANCE":"1163.58847655197","DOOR_ID":256879,"STORE_TYPE":"","CITY":"San Diego","SERVICES":null,"COUNTRY":"UNITED STATES","STORE_HOURS":null,"EVENT_NAME":"","DOORNAME":"Sephora - Fashion Valley","PHONE1":"619-220-0771","REGION":null,"LATITUDE":"32.7687798","ADDRESS2":"","ADDRESS":"7007 Friars Road, Suite 314","ZIP_OR_POSTAL":"92108","EVENT_IMAGE":"","EVENT_END_DATE":null,"EVENT_FEATURES":null,"EVENT_TIMES":"","LONGITUDE":"-117.1675776","EVENT_START_DATE":null,"STATE_OR_PROVINCE":"CA"},"256642":{"DISTANCE":"246.447245438469","DOOR_ID":256642,"STORE_TYPE":"","CITY":"Houston","SERVICES":null,"COUNTRY":"UNITED STATES","STORE_HOURS":null,"EVENT_NAME":"","DOORNAME":"Saks Fifth Avenue","PHONE1":"713.627.0500","REGION":null,"LATITUDE":"29.7405643","ADDRESS2":"","ADDRESS":"5115 Westheimer Rd","ZIP_OR_POSTAL":"77056","EVENT_IMAGE":"","EVENT_END_DATE":null,"EVENT_FEATURES":null,"EVENT_TIMES":"","LONGITUDE":"-95.4645581","EVENT_START_DATE":null,"STATE_OR_PROVINCE":"TX"},"256844":{"DISTANCE":"242.148399886697","DOOR_ID":256844,"STORE_TYPE":"","CITY":"Houston","SERVICES":null,"COUNTRY":"UNITED STATES","STORE_HOURS":null,"EVENT_NAME":"","DOORNAME":"Macy's","PHONE1":"713-461-0400","REGION":null,"LATITUDE":"29.7791291","ADDRESS2":"","ADDRESS":"900 Gessner Road","ZIP_OR_POSTAL":"77024","EVENT_IMAGE":"","EVENT_END_DATE":null,"EVENT_FEATURES":null,"EVENT_TIMES":"","LONGITUDE":"-95.5443546","EVENT_START_DATE":null,"STATE_OR_PROVINCE":"TX"},"2050141":{"DISTANCE":"6978.70372694672","DOOR_ID":2050141,"STORE_TYPE":"","CITY":"Ashdod","SERVICES":null,"COUNTRY":"Israel","STORE_HOURS":null,"EVENT_NAME":"","DOORNAME":"Ashdod","PHONE1":"+972-8-6580300","REGION":null,"LATITUDE":"31.804381","ADDRESS2":"","ADDRESS":"1 Ariel Sharon rd","ZIP_OR_POSTAL":"","EVENT_IMAGE":"","EVENT_END_DATE":null,"EVENT_FEATURES":null,"EVENT_TIMES":"","LONGITUDE":"34.655314","EVENT_START_DATE":null,"STATE_OR_PROVINCE":""},"257037":{"DISTANCE":"1371.48904528229","DOOR_ID":257037,"STORE_TYPE":"","CITY":"Shrewsbury","SERVICES":null,"COUNTRY":"UNITED STATES","STORE_HOURS":null,"EVENT_NAME":"","DOORNAME":"bluemercury","PHONE1":"732.842.7300","REGION":null,"LATITUDE":"40.3333125","ADDRESS2":"","ADDRESS":"571 Route 35","ZIP_OR_POSTAL":"07702","EVENT_IMAGE":"","EVENT_END_DATE":null,"EVENT_FEATURES":null,"EVENT_TIMES":"","LONGITUDE":"-74.0629054","EVENT_START_DATE":null,"STATE_OR_PROVINCE":"NJ"},"2050032":{"DISTANCE":"937.742017110421","DOOR_ID":2050032,"STORE_TYPE":"","CITY":"Saint-Petersburg","SERVICES":null,"COUNTRY":"Russia","STORE_HOURS":null,"EVENT_NAME":"","DOORNAME":"Ile de Beaute Frantsuzskiy bulvar","PHONE1":"+7.981.742.15.01","REGION":null,"LATITUDE":"27.7518284","ADDRESS2":"","ADDRESS":"Novatorov blvd.,11, bld.2","ZIP_OR_POSTAL":"198216","EVENT_IMAGE":"","EVENT_END_DATE":null,"EVENT_FEATURES":null,"EVENT_TIMES":"","LONGITUDE":"-82.6267345","EVENT_START_DATE":null,"STATE_OR_PROVINCE":""},"256678":{"DISTANCE":"5482.20743683839","DOOR_ID":256678,"STORE_TYPE":"","CITY":"Warszawa","SERVICES":null,"COUNTRY":"Poland","STORE_HOURS":null,"EVENT_NAME":"","DOORNAME":"Douglas","PHONE1":"(+48) 22 852 29 56","REGION":null,"LATITUDE":"52.1795462","ADDRESS2":"","ADDRESS":"ul Wołoska 12","ZIP_OR_POSTAL":"00-675","EVENT_IMAGE":"","EVENT_END_DATE":null,"EVENT_FEATURES":null,"EVENT_TIMES":"","LONGITUDE":"21.004387","EVENT_START_DATE":null,"STATE_OR_PROVINCE":""},"256645":{"DISTANCE":"1511.17826078206","DOOR_ID":256645,"STORE_TYPE":"","CITY":"Calgary","SERVICES":null,"COUNTRY":"Canada","STORE_HOURS":null,"EVENT_NAME":"","DOORNAME":"Holt Renfrew","PHONE1":"403.269.7341 ext. 240","REGION":null,"LATITUDE":"51.0468668","ADDRESS2":"","ADDRESS":"751 Third Street SW","ZIP_OR_POSTAL":"T2P4K8","EVENT_IMAGE":"","EVENT_END_DATE":null,"EVENT_FEATURES":null,"EVENT_TIMES":"","LONGITUDE":"-114.0703661","EVENT_START_DATE":null,"STATE_OR_PROVINCE":"AB"},"4051486":{"DISTANCE":"9256.61977476909","DOOR_ID":4051486,"STORE_TYPE":"","CITY":"Chennai","SERVICES":null,"COUNTRY":"India","STORE_HOURS":null,"EVENT_NAME":"","DOORNAME":"Bobbi Brown Store","PHONE1":"(+91) 44 28464446","REGION":null,"LATITUDE":"13.0586471","ADDRESS2":"","ADDRESS":"Express Avenue Mall, Club House Road, Royapettah, Chennai","ZIP_OR_POSTAL":"600002","EVENT_IMAGE":"","EVENT_END_DATE":null,"EVENT_FEATURES":null,"EVENT_TIMES":"","LONGITUDE":"80.2646672","EVENT_START_DATE":null,"STATE_OR_PROVINCE":"Tamil Nadu"},"256342":{"DISTANCE":"1363.4779300997","DOOR_ID":256342,"STORE_TYPE":"","CITY":"Short Hills","SERVICES":null,"COUNTRY":"UNITED STATES","STORE_HOURS":null,"EVENT_NAME":"","DOORNAME":"Saks Fifth Avenue","PHONE1":"973.376.7000 x2175","REGION":null,"LATITUDE":"40.741185","ADDRESS2":"","ADDRESS":"1200 Morris Turnpike","ZIP_OR_POSTAL":"07078","EVENT_IMAGE":"","EVENT_END_DATE":null,"EVENT_FEATURES":null,"EVENT_TIMES":"","LONGITUDE":"-74.363365","EVENT_START_DATE":null,"STATE_OR_PROVINCE":"NJ"},"256784":{"DISTANCE":"6972.8292966526","DOOR_ID":256784,"STORE_TYPE":"","CITY":"Beijing","SERVICES":null,"COUNTRY":"China Mainland","STORE_HOURS":null,"EVENT_NAME":"","DOORNAME":"Mitsukoshi","PHONE1":"86.10.6530.5485","REGION":null,"LATITUDE":"39.9237637","ADDRESS2":"","ADDRESS":"North Tower of Building 18, No.89, Jianguo Rd. 1F","ZIP_OR_POSTAL":"100025","EVENT_IMAGE":"","EVENT_END_DATE":null,"EVENT_FEATURES":null,"EVENT_TIMES":"","LONGITUDE":"116.4782797","EVENT_START_DATE":null,"STATE_OR_PROVINCE":""},"257365":{"DISTANCE":"4758.09073094854","DOOR_ID":257365,"STORE_TYPE":"","CITY":"London","SERVICES":null,"COUNTRY":"United Kingdom","STORE_HOURS":null,"EVENT_NAME":"","DOORNAME":"Fenwick","PHONE1":"020 7491 1904","REGION":null,"LATITUDE":"51.513225","ADDRESS2":"","ADDRESS":"63 New Bond Street","ZIP_OR_POSTAL":"W1A 3BS","EVENT_IMAGE":"","EVENT_END_DATE":null,"EVENT_FEATURES":null,"EVENT_TIMES":"","LONGITUDE":"-.1453896","EVENT_START_DATE":null,"STATE_OR_PROVINCE":""},"256759":{"DISTANCE":"8987.05837625609","DOOR_ID":256759,"STORE_TYPE":"","CITY":"Melbourne","SERVICES":null,"COUNTRY":"Australia","STORE_HOURS":null,"EVENT_NAME":"","DOORNAME":"Myer Melbourne","PHONE1":"03 9661 3738","REGION":null,"LATITUDE":"-37.8119502","ADDRESS2":"","ADDRESS":"295 Lonsdale Street","ZIP_OR_POSTAL":"3000","EVENT_IMAGE":"","EVENT_END_DATE":null,"EVENT_FEATURES":null,"EVENT_TIMES":"","LONGITUDE":"144.9636056","EVENT_START_DATE":null,"STATE_OR_PROVINCE":"VIC"},"3614917":{"DISTANCE":"4940.97287056657","DOOR_ID":3614917,"STORE_TYPE":"","CITY":"Antwerpen","SERVICES":null,"COUNTRY":"Belgium","STORE_HOURS":null,"EVENT_NAME":"","DOORNAME":"Parfuma Antwerpen","PHONE1":"+32 3 232 46 11","REGION":null,"LATITUDE":"51.2192188","ADDRESS2":"","ADDRESS":"Eiermarkt 31","ZIP_OR_POSTAL":"2000","EVENT_IMAGE":"","EVENT_END_DATE":null,"EVENT_FEATURES":null,"EVENT_TIMES":"","LONGITUDE":"4.404052","EVENT_START_DATE":null,"STATE_OR_PROVINCE":""},"5874239":{"DISTANCE":"1627.99249670693","DOOR_ID":5874239,"STORE_TYPE":"","CITY":"Edmonton","SERVICES":null,"COUNTRY":"Canada","STORE_HOURS":null,"EVENT_NAME":"","DOORNAME":"Sephora Canada-South","PHONE1":"","REGION":null,"LATITUDE":"53.4851099","ADDRESS2":"","ADDRESS":"5015 - 111 St Nw, Unit #29","ZIP_OR_POSTAL":"","EVENT_IMAGE":"","EVENT_END_DATE":null,"EVENT_FEATURES":null,"EVENT_TIMES":"","LONGITUDE":"-113.513582","EVENT_START_DATE":null,"STATE_OR_PROVINCE":"AB"},"256799":{"DISTANCE":"4799.29553559204","DOOR_ID":256799,"STORE_TYPE":"","CITY":"La Baule","SERVICES":null,"COUNTRY":"France","STORE_HOURS":null,"EVENT_NAME":"","DOORNAME":"Elytis","PHONE1":"02.40.60.04.08","REGION":null,"LATITUDE":"47.2822588","ADDRESS2":"","ADDRESS":"14 Avenue du Général de Gaulle","ZIP_OR_POSTAL":"44500","EVENT_IMAGE":"","EVENT_END_DATE":null,"EVENT_FEATURES":null,"EVENT_TIMES":"","LONGITUDE":"-2.3922179","EVENT_START_DATE":null,"STATE_OR_PROVINCE":""},"2050097":{"DISTANCE":"6246.22619282901","DOOR_ID":2050097,"STORE_TYPE":"","CITY":"Athens","SERVICES":null,"COUNTRY":"Greece","STORE_HOURS":null,"EVENT_NAME":"","DOORNAME":"Attica Athens","PHONE1":"30.211.180.2500","REGION":null,"LATITUDE":"37.9776183","ADDRESS2":"","ADDRESS":"Panepistimiou 9","ZIP_OR_POSTAL":"","EVENT_IMAGE":"","EVENT_END_DATE":null,"EVENT_FEATURES":null,"EVENT_TIMES":"","LONGITUDE":"23.734979","EVENT_START_DATE":null,"STATE_OR_PROVINCE":""},"470204":{"DISTANCE":"5324.03418178038","DOOR_ID":470204,"STORE_TYPE":"","CITY":"Cannes","SERVICES":null,"COUNTRY":"France","STORE_HOURS":null,"EVENT_NAME":"","DOORNAME":"Antibes Cannes","PHONE1":"+33 4 93 99 23 20  ","REGION":null,"LATITUDE":"43.5522987","ADDRESS2":"","ADDRESS":"51, rue d'Antibes","ZIP_OR_POSTAL":"'06400","EVENT_IMAGE":"","EVENT_END_DATE":null,"EVENT_FEATURES":null,"EVENT_TIMES":"","LONGITUDE":"7.0208478","EVENT_START_DATE":null,"STATE_OR_PROVINCE":""},"3503434":{"DISTANCE":"761.197852930573","DOOR_ID":3503434,"STORE_TYPE":"","CITY":"Buford","SERVICES":null,"COUNTRY":"UNITED STATES","STORE_HOURS":null,"EVENT_NAME":"","DOORNAME":"Macys Mall of Georgia","PHONE1":"678-546-4252","REGION":null,"LATITUDE":"34.0651493","ADDRESS2":"","ADDRESS":"3333 Buford Dr NW","ZIP_OR_POSTAL":"30519","EVENT_IMAGE":"","EVENT_END_DATE":null,"EVENT_FEATURES":null,"EVENT_TIMES":"","LONGITUDE":"-83.9847659","EVENT_START_DATE":null,"STATE_OR_PROVINCE":"GA"},"257095":{"DISTANCE":"4656.69202830698","DOOR_ID":257095,"STORE_TYPE":"","CITY":"Birmingham","SERVICES":null,"COUNTRY":"United Kingdom","STORE_HOURS":null,"EVENT_NAME":"","DOORNAME":"Selfridges & Co.","PHONE1":"0161 600 6955 (direct)","REGION":null,"LATITUDE":"52.44839","ADDRESS2":"","ADDRESS":"Bull Ring","ZIP_OR_POSTAL":"B5 4BP","EVENT_IMAGE":"","EVENT_END_DATE":null,"EVENT_FEATURES":null,"EVENT_TIMES":"","LONGITUDE":"-2.049808","EVENT_START_DATE":null,"STATE_OR_PROVINCE":""},"256603":{"DISTANCE":"9010.97378874815","DOOR_ID":256603,"STORE_TYPE":"","CITY":"Bangkok","SERVICES":null,"COUNTRY":"Thailand","STORE_HOURS":null,"EVENT_NAME":"","DOORNAME":"Siam Discovery Center","PHONE1":"+66 2658 0296","REGION":null,"LATITUDE":"13.7467882","ADDRESS2":"","ADDRESS":"989 Rama 1 Road, Pathumwan","ZIP_OR_POSTAL":"","EVENT_IMAGE":"","EVENT_END_DATE":null,"EVENT_FEATURES":null,"EVENT_TIMES":"","LONGITUDE":"100.5345951","EVENT_START_DATE":null,"STATE_OR_PROVINCE":""},"5936091":{"DISTANCE":"1513.67045238406","DOOR_ID":5936091,"STORE_TYPE":"","CITY":"Laval","SERVICES":null,"COUNTRY":"","STORE_HOURS":null,"EVENT_NAME":"","DOORNAME":"Sephora Canada-Carr","PHONE1":"","REGION":null,"LATITUDE":"45.5702063","ADDRESS2":"","ADDRESS":"3035 Le Carrefour Blvd","ZIP_OR_POSTAL":"","EVENT_IMAGE":"","EVENT_END_DATE":null,"EVENT_FEATURES":null,"EVENT_TIMES":"","LONGITUDE":"-73.7519628","EVENT_START_DATE":null,"STATE_OR_PROVINCE":"QC"},"352228":{"DISTANCE":"1400.1389400684","DOOR_ID":352228,"STORE_TYPE":"","CITY":"Garden City","SERVICES":null,"COUNTRY":"UNITED STATES","STORE_HOURS":null,"EVENT_NAME":"","DOORNAME":"ROOSEVELT FIELD","PHONE1":"","REGION":null,"LATITUDE":"40.7267682","ADDRESS2":"630 Old Country Road #1122","ADDRESS":"Sephora","ZIP_OR_POSTAL":"11530","EVENT_IMAGE":"","EVENT_END_DATE":null,"EVENT_FEATURES":null,"EVENT_TIMES":"","LONGITUDE":"-73.6342954","EVENT_START_DATE":null,"STATE_OR_PROVINCE":"NY"},"6560297":{"DISTANCE":"5263.66933278689","DOOR_ID":6560297,"STORE_TYPE":"Shopping","CITY":"Blaine","SERVICES":null,"COUNTRY":"USA","STORE_HOURS":null,"EVENT_NAME":"","DOORNAME":"Mara Liska","PHONE1":"(000) 000-0000 x0000","REGION":null,"LATITUDE":"-34.4457556","ADDRESS2":"2nd Floor","ADDRESS":"4000 Pheasant Ridge Drive","ZIP_OR_POSTAL":"55449","EVENT_IMAGE":"","EVENT_END_DATE":null,"EVENT_FEATURES":null,"EVENT_TIMES":"","LONGITUDE":"-58.868632","EVENT_START_DATE":null,"STATE_OR_PROVINCE":"MN"},"256684":{"DISTANCE":"655.368226447834","DOOR_ID":256684,"STORE_TYPE":"","CITY":"Destin","SERVICES":null,"COUNTRY":"UNITED STATES","STORE_HOURS":null,"EVENT_NAME":"","DOORNAME":"Belk","PHONE1":"850.650.4091 x238","REGION":null,"LATITUDE":"30.3912618","ADDRESS2":"","ADDRESS":"4101 Legendary Way","ZIP_OR_POSTAL":"32541","EVENT_IMAGE":"","EVENT_END_DATE":null,"EVENT_FEATURES":null,"EVENT_TIMES":"","LONGITUDE":"-86.4261655","EVENT_START_DATE":null,"STATE_OR_PROVINCE":"FL"},"256852":{"DISTANCE":"739.160166673354","DOOR_ID":256852,"STORE_TYPE":"","CITY":"Atlanta","SERVICES":null,"COUNTRY":"UNITED STATES","STORE_HOURS":null,"EVENT_NAME":"","DOORNAME":"Nordstrom","PHONE1":"404.442.3000","REGION":null,"LATITUDE":"33.852954","ADDRESS2":"","ADDRESS":"3500 Peachtree Road NE","ZIP_OR_POSTAL":"30326","EVENT_IMAGE":"","EVENT_END_DATE":null,"EVENT_FEATURES":null,"EVENT_TIMES":"","LONGITUDE":"-84.362683","EVENT_START_DATE":null,"STATE_OR_PROVINCE":"GA"},"3106275":{"DISTANCE":"1297.72649971171","DOOR_ID":3106275,"STORE_TYPE":"","CITY":"Santa Barbara","SERVICES":null,"COUNTRY":"UNITED STATES","STORE_HOURS":null,"EVENT_NAME":"","DOORNAME":"Cos Bar of of Montecito","PHONE1":"805.565.7734","REGION":null,"LATITUDE":"34.4208907","ADDRESS2":"","ADDRESS":"1253 Coast Village Rd, Suite 203","ZIP_OR_POSTAL":"93108","EVENT_IMAGE":"","EVENT_END_DATE":null,"EVENT_FEATURES":null,"EVENT_TIMES":"","LONGITUDE":"-119.6422832","EVENT_START_DATE":null,"STATE_OR_PROVINCE":"CA"},"257120":{"DISTANCE":"6584.16064976097","DOOR_ID":257120,"STORE_TYPE":"","CITY":"Aichi","SERVICES":null,"COUNTRY":"Japan","STORE_HOURS":null,"EVENT_NAME":"","DOORNAME":"Meitetsu Nagoya","PHONE1":"81-52-585-2234","REGION":null,"LATITUDE":"35.1696557","ADDRESS2":"Nagoya-Shi","ADDRESS":"1-2-1, Meieki, Nakamura-ku","ZIP_OR_POSTAL":"450-8505","EVENT_IMAGE":"","EVENT_END_DATE":null,"EVENT_FEATURES":null,"EVENT_TIMES":"","LONGITUDE":"136.8840113","EVENT_START_DATE":null,"STATE_OR_PROVINCE":""},"5936193":{"DISTANCE":"1743.41593758381","DOOR_ID":5936193,"STORE_TYPE":"","CITY":"West Vancouver","SERVICES":null,"COUNTRY":"","STORE_HOURS":null,"EVENT_NAME":"","DOORNAME":"Sephora Canada-Prk Royal","PHONE1":"","REGION":null,"LATITUDE":"49.2777831","ADDRESS2":"","ADDRESS":"796 Main Street","ZIP_OR_POSTAL":"","EVENT_IMAGE":"","EVENT_END_DATE":null,"EVENT_FEATURES":null,"EVENT_TIMES":"","LONGITUDE":"-123.0995851","EVENT_START_DATE":null,"STATE_OR_PROVINCE":"BC"},"256387":{"DISTANCE":"1413.13300675016","DOOR_ID":256387,"STORE_TYPE":"","CITY":"Huntington Station","SERVICES":null,"COUNTRY":"UNITED STATES","STORE_HOURS":null,"EVENT_NAME":"","DOORNAME":"Bloomingdale's","PHONE1":"631.425.6700","REGION":null,"LATITUDE":"40.82503","ADDRESS2":"","ADDRESS":"270 Walt Whitman Road","ZIP_OR_POSTAL":"11746","EVENT_IMAGE":"","EVENT_END_DATE":null,"EVENT_FEATURES":null,"EVENT_TIMES":"","LONGITUDE":"-73.4122077","EVENT_START_DATE":null,"STATE_OR_PROVINCE":"NY"},"352188":{"DISTANCE":"1383.79569071562","DOOR_ID":352188,"STORE_TYPE":"","CITY":"New York","SERVICES":null,"COUNTRY":"UNITED STATES","STORE_HOURS":null,"EVENT_NAME":"","DOORNAME":"Blue Mercury","PHONE1":"","REGION":null,"LATITUDE":"40.786618","ADDRESS2":"","ADDRESS":"865 Broadway","ZIP_OR_POSTAL":"10003","EVENT_IMAGE":"","EVENT_END_DATE":null,"EVENT_FEATURES":null,"EVENT_TIMES":"","LONGITUDE":"-73.97804","EVENT_START_DATE":null,"STATE_OR_PROVINCE":"NY"},"257022":{"DISTANCE":"9151.34512419409","DOOR_ID":257022,"STORE_TYPE":"","CITY":"Johannesburg","SERVICES":null,"COUNTRY":"South Africa","STORE_HOURS":null,"EVENT_NAME":"","DOORNAME":"Edgars","PHONE1":"27 11 622 9982","REGION":null,"LATITUDE":"-26.1809063","ADDRESS2":"Bedfordview","ADDRESS":"Cnr Bradford Rd & Nicol Rd","ZIP_OR_POSTAL":"2006","EVENT_IMAGE":"","EVENT_END_DATE":null,"EVENT_FEATURES":null,"EVENT_TIMES":"","LONGITUDE":"28.1193275","EVENT_START_DATE":null,"STATE_OR_PROVINCE":"Gauteng"},"256719":{"DISTANCE":"6245.43152829116","DOOR_ID":256719,"STORE_TYPE":"","CITY":"Athens","SERVICES":null,"COUNTRY":"Greece","STORE_HOURS":null,"EVENT_NAME":"","DOORNAME":"Notos","PHONE1":"","REGION":null,"LATITUDE":"37.97918","ADDRESS2":"","ADDRESS":"99 Aiolou str. & Lykourgou str.","ZIP_OR_POSTAL":"","EVENT_IMAGE":"","EVENT_END_DATE":null,"EVENT_FEATURES":null,"EVENT_TIMES":"","LONGITUDE":"23.716647","EVENT_START_DATE":null,"STATE_OR_PROVINCE":""},"5874178":{"DISTANCE":"1212.87277297532","DOOR_ID":5874178,"STORE_TYPE":"","CITY":"North York","SERVICES":null,"COUNTRY":"Canada","STORE_HOURS":null,"EVENT_NAME":"","DOORNAME":"Hudsons Bay-Fairview","PHONE1":"","REGION":null,"LATITUDE":"43.7779901","ADDRESS2":"","ADDRESS":"1800 Sheppard Ave East","ZIP_OR_POSTAL":"","EVENT_IMAGE":"","EVENT_END_DATE":null,"EVENT_FEATURES":null,"EVENT_TIMES":"","LONGITUDE":"-79.3440914","EVENT_START_DATE":null,"STATE_OR_PROVINCE":"ON"},"3106281":{"DISTANCE":"845.036287750818","DOOR_ID":3106281,"STORE_TYPE":"","CITY":"Edina","SERVICES":null,"COUNTRY":"UNITED STATES","STORE_HOURS":null,"EVENT_NAME":"","DOORNAME":"Cos Bar of Edina","PHONE1":"952.303.6249","REGION":null,"LATITUDE":"44.9123475","ADDRESS2":"","ADDRESS":"3905 W 50th St","ZIP_OR_POSTAL":"55424","EVENT_IMAGE":"","EVENT_END_DATE":null,"EVENT_FEATURES":null,"EVENT_TIMES":"","LONGITUDE":"-93.3294701","EVENT_START_DATE":null,"STATE_OR_PROVINCE":"MN"},"5936129":{"DISTANCE":"1511.12442340944","DOOR_ID":5936129,"STORE_TYPE":"","CITY":"Calgary","SERVICES":null,"COUNTRY":"","STORE_HOURS":null,"EVENT_NAME":"","DOORNAME":"Sephora Canada-The Core","PHONE1":"","REGION":null,"LATITUDE":"51.0464193","ADDRESS2":"","ADDRESS":"317 7 Ave Sw Ste# T220","ZIP_OR_POSTAL":"","EVENT_IMAGE":"","EVENT_END_DATE":null,"EVENT_FEATURES":null,"EVENT_TIMES":"","LONGITUDE":"-114.0693004","EVENT_START_DATE":null,"STATE_OR_PROVINCE":"AB"},"257282":{"DISTANCE":"7801.39360275931","DOOR_ID":257282,"STORE_TYPE":"","CITY":"Riyadh","SERVICES":null,"COUNTRY":"Saudi Arabia","STORE_HOURS":null,"EVENT_NAME":"","DOORNAME":"Harvey Nichols","PHONE1":"(9661)  273-4444 extn. 307","REGION":null,"LATITUDE":"24.737335","ADDRESS2":"","ADDRESS":"Olaya District - King Fahad Road","ZIP_OR_POSTAL":"","EVENT_IMAGE":"","EVENT_END_DATE":null,"EVENT_FEATURES":null,"EVENT_TIMES":"","LONGITUDE":"46.6629257","EVENT_START_DATE":null,"STATE_OR_PROVINCE":""},"257198":{"DISTANCE":"4941.9815221927","DOOR_ID":257198,"STORE_TYPE":"","CITY":"Paris","SERVICES":null,"COUNTRY":"France","STORE_HOURS":null,"EVENT_NAME":"","DOORNAME":"Séphora","PHONE1":"01.55.42.62.90","REGION":null,"LATITUDE":"48.851462","ADDRESS2":"","ADDRESS":"79 boulevard St Germain","ZIP_OR_POSTAL":"75006","EVENT_IMAGE":"","EVENT_END_DATE":null,"EVENT_FEATURES":null,"EVENT_TIMES":"","LONGITUDE":"2.3422943","EVENT_START_DATE":null,"STATE_OR_PROVINCE":""},"4051483":{"DISTANCE":"8792.54674560654","DOOR_ID":4051483,"STORE_TYPE":"","CITY":"Mumbai","SERVICES":null,"COUNTRY":"India","STORE_HOURS":null,"EVENT_NAME":"","DOORNAME":"Bobbi Brown Store","PHONE1":"(+91) 22 40020982","REGION":null,"LATITUDE":"18.9942268","ADDRESS2":"","ADDRESS":"Palladium Mall, Senapati Bapat Marg, Lower Parel","ZIP_OR_POSTAL":"400013","EVENT_IMAGE":"","EVENT_END_DATE":null,"EVENT_FEATURES":null,"EVENT_TIMES":"","LONGITUDE":"72.8242267","EVENT_START_DATE":null,"STATE_OR_PROVINCE":"Maharashtra"},"256345":{"DISTANCE":"852.65689118724","DOOR_ID":256345,"STORE_TYPE":"","CITY":"Asheville","SERVICES":null,"COUNTRY":"UNITED STATES","STORE_HOURS":null,"EVENT_NAME":"","DOORNAME":"Belk","PHONE1":"828.298.4970 x275","REGION":null,"LATITUDE":"35.580495","ADDRESS2":"","ADDRESS":"5 South Tunnel Rd.","ZIP_OR_POSTAL":"28805","EVENT_IMAGE":"","EVENT_END_DATE":null,"EVENT_FEATURES":null,"EVENT_TIMES":"","LONGITUDE":"-82.525672","EVENT_START_DATE":null,"STATE_OR_PROVINCE":"NC"},"257215":{"DISTANCE":"5058.06745760708","DOOR_ID":257215,"STORE_TYPE":"","CITY":"Hamburg","SERVICES":null,"COUNTRY":"Germany","STORE_HOURS":null,"EVENT_NAME":"","DOORNAME":"Hamburger Hof Parfumerie","PHONE1":"49-40-34-96-04-21","REGION":null,"LATITUDE":"53.55384","ADDRESS2":"","ADDRESS":"Jungfernstieg 26","ZIP_OR_POSTAL":"20354","EVENT_IMAGE":"","EVENT_END_DATE":null,"EVENT_FEATURES":null,"EVENT_TIMES":"","LONGITUDE":"9.99071","EVENT_START_DATE":null,"STATE_OR_PROVINCE":""},"256394":{"DISTANCE":"1444.46710149786","DOOR_ID":256394,"STORE_TYPE":"","CITY":"Palo Alto","SERVICES":null,"COUNTRY":"UNITED STATES","STORE_HOURS":null,"EVENT_NAME":"","DOORNAME":"Bloomingdale's","PHONE1":"650.463.2019","REGION":null,"LATITUDE":"37.4428962","ADDRESS2":"","ADDRESS":"One Stanford Shopping Center","ZIP_OR_POSTAL":"94304","EVENT_IMAGE":"","EVENT_END_DATE":null,"EVENT_FEATURES":null,"EVENT_TIMES":"","LONGITUDE":"-122.1702123","EVENT_START_DATE":null,"STATE_OR_PROVINCE":"CA"},"441359":{"DISTANCE":"1327.03784789795","DOOR_ID":441359,"STORE_TYPE":"","CITY":"Langhorne","SERVICES":null,"COUNTRY":"UNITED STATES","STORE_HOURS":null,"EVENT_NAME":"","DOORNAME":"Sephora Oxford","PHONE1":"","REGION":null,"LATITUDE":"40.1835399","ADDRESS2":"Space # 127","ADDRESS":"2300 East Lincoln Hwy","ZIP_OR_POSTAL":"19047","EVENT_IMAGE":"","EVENT_END_DATE":null,"EVENT_FEATURES":null,"EVENT_TIMES":"","LONGITUDE":"-74.8809366","EVENT_START_DATE":null,"STATE_OR_PROVINCE":"PA"},"2050070":{"DISTANCE":"5491.57480145426","DOOR_ID":2050070,"STORE_TYPE":"","CITY":"Klagenfurt","SERVICES":null,"COUNTRY":"Austria","STORE_HOURS":null,"EVENT_NAME":"","DOORNAME":"Nägele & Strubell","PHONE1":"+43 463 504764","REGION":null,"LATITUDE":"46.6258278","ADDRESS2":"","ADDRESS":"Wienergasse 8","ZIP_OR_POSTAL":"9020","EVENT_IMAGE":"","EVENT_END_DATE":null,"EVENT_FEATURES":null,"EVENT_TIMES":"","LONGITUDE":"14.3083036","EVENT_START_DATE":null,"STATE_OR_PROVINCE":""},"2156524":{"DISTANCE":"5188.62691284966","DOOR_ID":2156524,"STORE_TYPE":"","CITY":"Genève","SERVICES":null,"COUNTRY":"Switzerland","STORE_HOURS":null,"EVENT_NAME":"","DOORNAME":"Douglas Genève","PHONE1":"0041 22 810 41 33","REGION":null,"LATITUDE":"46.2029393","ADDRESS2":"","ADDRESS":"7, Rue de la Croix-d'Or","ZIP_OR_POSTAL":"1204","EVENT_IMAGE":"","EVENT_END_DATE":null,"EVENT_FEATURES":null,"EVENT_TIMES":"","LONGITUDE":"6.1484694","EVENT_START_DATE":null,"STATE_OR_PROVINCE":""},"5936124":{"DISTANCE":"1506.15272422234","DOOR_ID":5936124,"STORE_TYPE":"","CITY":"Calgary","SERVICES":null,"COUNTRY":"","STORE_HOURS":null,"EVENT_NAME":"","DOORNAME":"Sephora Canada-South Calgary","PHONE1":"","REGION":null,"LATITUDE":"50.9525539","ADDRESS2":"","ADDRESS":"100 Anderson Rd Se #222","ZIP_OR_POSTAL":"","EVENT_IMAGE":"","EVENT_END_DATE":null,"EVENT_FEATURES":null,"EVENT_TIMES":"","LONGITUDE":"-114.0662572","EVENT_START_DATE":null,"STATE_OR_PROVINCE":"AB"},"2050120":{"DISTANCE":"4964.93425620256","DOOR_ID":2050120,"STORE_TYPE":"","CITY":"Gothenburg","SERVICES":null,"COUNTRY":"Sweden","STORE_HOURS":null,"EVENT_NAME":"","DOORNAME":"Åhlens Kungsgatan","PHONE1":"","REGION":null,"LATITUDE":"57.7041931","ADDRESS2":"","ADDRESS":"Kungsgatan 35","ZIP_OR_POSTAL":"41115","EVENT_IMAGE":"","EVENT_END_DATE":null,"EVENT_FEATURES":null,"EVENT_TIMES":"","LONGITUDE":"11.9650984","EVENT_START_DATE":null,"STATE_OR_PROVINCE":""},"257172":{"DISTANCE":"8714.4177721397","DOOR_ID":257172,"STORE_TYPE":"","CITY":"Chiang Mai","SERVICES":null,"COUNTRY":"Thailand","STORE_HOURS":null,"EVENT_NAME":"","DOORNAME":"Robinson Chiangmai","PHONE1":"6653-272-521","REGION":null,"LATITUDE":"18.7666217","ADDRESS2":"Haiya Muang","ADDRESS":"2 Mahidol Road","ZIP_OR_POSTAL":"50100","EVENT_IMAGE":"","EVENT_END_DATE":null,"EVENT_FEATURES":null,"EVENT_TIMES":"","LONGITUDE":"98.9873371","EVENT_START_DATE":null,"STATE_OR_PROVINCE":""},"5874189":{"DISTANCE":"1211.21954853222","DOOR_ID":5874189,"STORE_TYPE":"","CITY":"Toronto","SERVICES":null,"COUNTRY":"Canada","STORE_HOURS":null,"EVENT_NAME":"","DOORNAME":"Murale- Don Mills ","PHONE1":"","REGION":null,"LATITUDE":"43.7346124","ADDRESS2":"","ADDRESS":"4 Aggie Hogg Garden Unit F003","ZIP_OR_POSTAL":"","EVENT_IMAGE":"","EVENT_END_DATE":null,"EVENT_FEATURES":null,"EVENT_TIMES":"","LONGITUDE":"-79.3460056","EVENT_START_DATE":null,"STATE_OR_PROVINCE":"ON"},"257135":{"DISTANCE":"6830.2638573115","DOOR_ID":257135,"STORE_TYPE":"","CITY":"Jung-gu Incheon","SERVICES":null,"COUNTRY":"Korea","STORE_HOURS":null,"EVENT_NAME":"","DOORNAME":"Shilla DFS - Main Terminal","PHONE1":"82-32-743-4737","REGION":null,"LATITUDE":"37.4711141","ADDRESS2":"","ADDRESS":"2851 Unseo-Dong","ZIP_OR_POSTAL":"","EVENT_IMAGE":"","EVENT_END_DATE":null,"EVENT_FEATURES":null,"EVENT_TIMES":"","LONGITUDE":"126.4663863","EVENT_START_DATE":null,"STATE_OR_PROVINCE":""},"257145":{"DISTANCE":"6818.81624315705","DOOR_ID":257145,"STORE_TYPE":"","CITY":"Bucheon-Si","SERVICES":null,"COUNTRY":"Korea","STORE_HOURS":null,"EVENT_NAME":"","DOORNAME":"Hyundai Joongdong","PHONE1":"82-32-623-2991","REGION":null,"LATITUDE":"37.5034138","ADDRESS2":"Wonmi-Ku","ADDRESS":"1164 Joong-Dong","ZIP_OR_POSTAL":"","EVENT_IMAGE":"","EVENT_END_DATE":null,"EVENT_FEATURES":null,"EVENT_TIMES":"","LONGITUDE":"126.7660309","EVENT_START_DATE":null,"STATE_OR_PROVINCE":"Kyungki-Do"},